[{ "_id" : { "$oid" : "546da93ebd88977c821bc7b2" }, "addr" : "8680 Miralani Dr #123", "city" : "San Diego", "name" : "2kids", "phone" : "(858) 480-5437", "slug" : "2kids", "state" : "CA", "sublocation" : "", "suffix" : "Brewing Company", "zip" : "92126", "twit" : { "name" : "2KidsBrewing", "user_id" : "546349426", "img" : "" }, "insta" : { "name" : "n/a", "place_id" : "", "user_id" : "" }, "fb" : { "url" : "facebook.com/2kidsBrewing", "page_id" : "203490893099887", "place_id" : "" }, "url" : "twokidsbrewing.com", "chk" : { "growlers" : false, "fams" : false, "dogs" : false, "trucks" : false, "foods" : false }, "lat" : 32.89525872, "lng" : -117.1386769 },{ "_id" : { "$oid" : "546da93ebd88977c821bc7b3" }, "addr" : "1795 Hancock St", "city" : "San Diego", "name" : "Acoustic Ales", "phone" : "(619) 299-2537", "slug" : "acoustic-ales", "state" : "CA", "sublocation" : "", "suffix" : "Brewing Experiment", "zip" : "92110", "twit" : { "name" : "AcousticAles", "user_id" : "1905756164", "img" : "" }, "insta" : { "name" : "acousticales", "place_id" : "", "user_id" : "" }, "fb" : { "url" : "facebook.com/acoustic.ales.5", "page_id" : "100004315691696", "place_id" : "" }, "url" : "acousticales.com", "chk" : { "growlers" : true, "fams" : true, "dogs" : true, "trucks" : true, "foods" : false }, "lat" : 32.74134027, "lng" : -117.1861584 },{ "_id" : { "$oid" : "546da93ebd88977c821bc7b4" }, "addr" : "9368 Cabot Dr", "city" : "San Diego", "name" : "AleSmith", "phone" : "(858) 549-9888", "slug" : "alesmith", "state" : "CA", "sublocation" : "", "suffix" : "Brewing Company", "zip" : "92126", "twit" : { "name" : "AleSmithBrewing", "user_id" : "134933240", "img" : "" }, "insta" : { "name" : "alesmithbrewing", "place_id" : "", "user_id" : "" }, "fb" : { "url" : "facebook.com/AleSmithBrewingCo", "page_id" : "121967421147391", "place_id" : "" }, "url" : "alesmith.com", "chk" : { "growlers" : true, "fams" : true, "dogs" : true, "trucks" : true, "foods" : false }, "lat" : 32.89110422, "lng" : -117.1460647 },{ "_id" : { "$oid" : "546da93ebd88977c821bc7b5" }, "addr" : "2351 Alpine Blvd", "city" : "Alpine", "name" : "Alpine", "phone" : "(619) 445-2337", "slug" : "alpine", "state" : "CA", "sublocation" : "", "suffix" : "Beer Company", "zip" : "91901", "twit" : { "name" : "alpineshawn", "user_id" : "", "img" : "" }, "insta" : { "name" : "n/a", "place_id" : "", "user_id" : "" }, "fb" : { "url" : "facebook.com/alpinebeercompany", "page_id" : "148753968530653", "place_id" : "" }, "url" : "alpinebeerco.com", "chk" : { "growlers" : false, "fams" : false, "dogs" : false, "trucks" : false, "foods" : false }, "lat" : 32.83387352, "lng" : -116.7642443 },{ "_id" : { "$oid" : "546da93ebd88977c821bc7b6" }, "addr" : "4150 Mission Blvd #208", "city" : "San Diego", "name" : "Amplified", "phone" : "858.270.5222", "slug" : "amplified", "state" : "CA", "sublocation" : "", "suffix" : "Ale Works", "zip" : "92109", "twit" : { "name" : "AmplifiedAles", "user_id" : "430944864", "img" : "" }, "insta" : { "name" : "amplifiedales", "place_id" : "", "user_id" : "" }, "fb" : { "url" : "facebook.com/ckpacificbeach", "page_id" : "", "place_id" : "" }, "url" : "amplifiedales.com", "chk" : { "growlers" : true, "fams" : true, "dogs" : true, "trucks" : false, "foods" : true }, "lat" : 32.78997072, "lng" : -117.2557908 },{ "_id" : { "$oid" : "546da93ebd88977c821bc7b7" }, "addr" : "5621 Palmer Way", "city" : "Carlsbad", "name" : "Arcana", "phone" : "(909) 529-2337", "slug" : "arcana", "state" : "CA", "sublocation" : "", "suffix" : "Brewing Co", "zip" : "92010", "twit" : { "name" : "ArcanaBrewing", "user_id" : "425535304", "img" : "" }, "insta" : { "name" : "arcanabrewing", "place_id" : "", "user_id" : "" }, "fb" : { "url" : "facebook.com/ArcanaBrewing", "page_id" : "", "place_id" : "" }, "url" : "arcanabrewing.com", "chk" : { "growlers" : true, "fams" : false, "dogs" : true, "trucks" : true, "foods" : false }, "lat" : 33.13886142, "lng" : -117.2752734 },{ "_id" : { "$oid" : "546da93ebd88977c821bc7b8" }, "addr" : "3416 Adams Ave", "city" : "San Diego", "name" : "Automatic", "phone" : "(619) 255-2491", "slug" : "automatic-blind-lady-ale-house", "state" : "CA", "sublocation" : "Blind Lady Ale House", "suffix" : "Brewing Co", "zip" : "92116", "twit" : { "name" : "AutomaticBrewCo", "user_id" : "240765114", "img" : "" }, "insta" : { "name" : "n/a", "place_id" : "", "user_id" : "" }, "fb" : { "url" : "facebook.com/pages/AutomaticBrewingCo/114145628625452", "page_id" : "", "place_id" : "" }, "url" : "blindladyalehouse.com", "chk" : { "growlers" : true, "fams" : true, "dogs" : false, "trucks" : false, "foods" : true }, "lat" : 32.76214902, "lng" : -117.1216497 },{ "_id" : { "$oid" : "546da93ebd88977c821bc7b9" }, "addr" : "2330 La Mirada Dr #300", "city" : "Vista", "name" : "Aztec", "phone" : "(760) 598-7720", "slug" : "aztec", "state" : "CA", "sublocation" : "", "suffix" : "Brewing Company", "zip" : "92081", "twit" : { "name" : "AztecBrewery", "user_id" : "124536940", "img" : "" }, "insta" : { "name" : "aztecbrewery", "place_id" : "", "user_id" : "" }, "fb" : { "url" : "facebook.com/AztecBrewery", "page_id" : "", "place_id" : "" }, "url" : "aztecbrewery.com", "chk" : { "growlers" : true, "fams" : true, "dogs" : true, "trucks" : true, "foods" : false }, "lat" : 33.14841922, "lng" : -117.2312528 },{ "_id" : { "$oid" : "546da93ebd88977c821bc7ba" }, "addr" : "15 Main St #100", "city" : "Vista", "name" : "Back Street", "phone" : "(760) 407-7600", "slug" : "back-street", "state" : "CA", "sublocation" : "", "suffix" : "Brewery", "zip" : "92083", "twit" : { "name" : "BackStreetBrew", "user_id" : "171682981", "img" : "" }, "insta" : { "name" : "n/a", "place_id" : "", "user_id" : "" }, "fb" : { "url" : "facebook.com/BackstreetBreweryInc", "page_id" : "", "place_id" : "" }, "url" : "lamppost-backstreet.com", "chk" : { "growlers" : true, "fams" : true, "dogs" : false, "trucks" : false, "foods" : true }, "lat" : 33.19868552, "lng" : -117.2460814 },{ "_id" : { "$oid" : "546da93ebd88977c821bc7bb" }, "addr" : "601 S Coast Hwy", "city" : "Oceanside", "name" : "Bagby", "phone" : "(760) 270-9075", "slug" : "bagby", "state" : "CA", "sublocation" : "", "suffix" : "Beer Company", "zip" : "92054", "twit" : { "name" : "bagbybeer", "user_id" : "", "img" : "" }, "insta" : { "name" : "bagbybeer", "place_id" : "", "user_id" : "" }, "fb" : { "url" : "facebook.com/bagbybeerco", "page_id" : "", "place_id" : "" }, "url" : "bagbybeer.com", "chk" : { "growlers" : true, "fams" : true, "dogs" : true, "trucks" : false, "foods" : true }, "lat" : NaN, "lng" : NaN },{ "_id" : { "$oid" : "546da93ebd88977c821bc7bc" }, "addr" : "10051 Old Grove Rd", "city" : "San Diego", "name" : "Ballast Point", "phone" : "(858) 695-2739", "slug" : "ballast-point-old-grove", "state" : "CA", "sublocation" : "Old Grove", "suffix" : "Brewing &amp; Spirits", "zip" : "92131", "twit" : { "name" : "BPbrewing", "user_id" : "40892068", "img" : "" }, "insta" : { "name" : "ballastpointbrewing", "place_id" : "", "user_id" : "" }, "fb" : { "url" : "facebook.com/BallastPoint", "page_id" : "", "place_id" : "" }, "url" : "ballastpoint.com", "chk" : { "growlers" : true, "fams" : true, "dogs" : true, "trucks" : true, "foods" : false }, "lat" : 32.89711702, "lng" : -117.112143 },{ "_id" : { "$oid" : "546da93ebd88977c821bc7bd" }, "addr" : "2215 India St", "city" : "San Diego", "name" : "Ballast Point", "phone" : "(619) 255-7213", "slug" : "ballast-point-little-italy", "state" : "CA", "sublocation" : "Little Italy", "suffix" : "Brewing &amp; Spirits", "zip" : "92110", "twit" : { "name" : "BPbrewing", "user_id" : "40892068", "img" : "" }, "insta" : { "name" : "ballastpointbrewing", "place_id" : "", "user_id" : "" }, "fb" : { "url" : "facebook.com/BallastPoint", "page_id" : "", "place_id" : "" }, "url" : "ballastpoint.com", "chk" : { "growlers" : true, "fams" : true, "dogs" : false, "trucks" : false, "foods" : true }, "lat" : 32.72636532, "lng" : -117.1710692 },{ "_id" : { "$oid" : "546da93ebd88977c821bc7be" }, "addr" : "5401 Linda Vista Rd, Suite 406", "city" : "San Diego", "name" : "Ballast Point", "phone" : "(619) 295-2337", "slug" : "ballast-point-home-brew-mart", "state" : "CA", "sublocation" : "Home Brew Mart", "suffix" : "Brewing &amp; Spirits", "zip" : "92110", "twit" : { "name" : "BPbrewing", "user_id" : "40892068", "img" : "" }, "insta" : { "name" : "ballastpointbrewing", "place_id" : "", "user_id" : "" }, "fb" : { "url" : "facebook.com/BallastPoint", "page_id" : "", "place_id" : "" }, "url" : "ballastpoint.com", "chk" : { "growlers" : true, "fams" : false, "dogs" : false, "trucks" : false, "foods" : false }, "lat" : 32.76540962, "lng" : -117.1965619 },{ "_id" : { "$oid" : "546da93ebd88977c821bc7bf" }, "addr" : "9045 Carroll Way", "city" : "San Diego", "name" : "Ballast Point", "phone" : "(858) 790-6900", "slug" : "ballast-point-miramar", "state" : "CA", "sublocation" : "Miramar", "suffix" : "Brewing &amp; Spirits", "zip" : "92121", "twit" : { "name" : "BPbrewing", "user_id" : "40892068", "img" : "" }, "insta" : { "name" : "ballastpointbrewing", "place_id" : "", "user_id" : "" }, "fb" : { "url" : "facebook.com/BallastPoint", "page_id" : "", "place_id" : "" }, "url" : "ballastpoint.com", "chk" : { "growlers" : false, "fams" : false, "dogs" : false, "trucks" : false, "foods" : false }, "lat" : 32.88672302, "lng" : -117.159462 },{ "_id" : { "$oid" : "546da93ebd88977c821bc7c0" }, "addr" : "2575 Pioneer Ave, Suite 104", "city" : "Vista", "name" : "Barrel Harbor", "phone" : "(760) 734-3949", "slug" : "barrel-harbor", "state" : "CA", "sublocation" : "", "suffix" : "Brewing Company", "zip" : "92081", "twit" : { "name" : "BarrelHarbor", "user_id" : "1023638527", "img" : "" }, "insta" : { "name" : "barrelharborbrewing", "place_id" : "", "user_id" : "" }, "fb" : { "url" : "facebook.com/BarrelHarborBrewingCompany", "page_id" : "182824848526472", "place_id" : "" }, "url" : "barrelharborbrewing.com", "chk" : { "growlers" : true, "fams" : true, "dogs" : true, "trucks" : true, "foods" : false }, "lat" : 33.14703302, "lng" : -117.22182 },{ "_id" : { "$oid" : "546da93ebd88977c821bc7c1" }, "addr" : "1815 S. Coast Hwy", "city" : "Oceanside", "name" : "Beer", "phone" : "(760) 505-0160", "slug" : "beer", "state" : "CA", "sublocation" : "", "suffix" : "Brewing Company", "zip" : "92054", "twit" : { "name" : "beer_haven", "user_id" : "", "img" : "" }, "insta" : { "name" : "n/a", "place_id" : "", "user_id" : "" }, "fb" : { "url" : "facebook.com/beerbrewingcompany", "page_id" : "", "place_id" : "" }, "url" : "beerbrewco.com", "chk" : { "growlers" : false, "fams" : false, "dogs" : false, "trucks" : false, "foods" : false }, "lat" : 33.17318752, "lng" : -117.3632351 },{ "_id" : { "$oid" : "546da93ebd88977c821bc7c2" }, "addr" : "980 Park Center Dr", "city" : "Vista", "name" : "Belching Beaver", "phone" : "(760) 599-5832", "slug" : "belching-beaver", "state" : "CA", "sublocation" : "", "suffix" : "Brewery", "zip" : "92081", "twit" : { "name" : "belchingbeaver", "user_id" : "388450012", "img" : "" }, "insta" : { "name" : "belchingbeaver", "place_id" : "", "user_id" : "" }, "fb" : { "url" : "facebook.com/pages/The-Belching-Beaver/157351577682127", "page_id" : "", "place_id" : "" }, "url" : "belchinbeaver.com", "chk" : { "growlers" : true, "fams" : true, "dogs" : true, "trucks" : true, "foods" : false }, "lat" : 33.14368932, "lng" : -117.2298972 },{ "_id" : { "$oid" : "546da93ebd88977c821bc7c3" }, "addr" : "4223 30th St", "city" : "San Diego", "name" : "Belching Beaver", "phone" : "(760) 282-1062", "slug" : "belching-beaver-north-park", "state" : "CA", "sublocation" : "North Park", "suffix" : "Brewery", "zip" : "92104", "twit" : { "name" : "belchingbeaver", "user_id" : "388450012", "img" : "" }, "insta" : { "name" : "belchingbeaver", "place_id" : "", "user_id" : "" }, "fb" : { "url" : "facebook.com/pages/Belching-Beaver-North-Park/509559302434005", "page_id" : "", "place_id" : "" }, "url" : "belchinbeaver.com", "chk" : { "growlers" : true, "fams" : true, "dogs" : true, "trucks" : true, "foods" : false }, "lat" : 32.75340052, "lng" : -117.1314211 },{ "_id" : { "$oid" : "546da93ebd88977c821bc7c4" }, "addr" : "6190 Fairmount Ave", "city" : "San Diego", "name" : "Benchmark", "phone" : "(619) 795-2911", "slug" : "benchmark", "state" : "CA", "sublocation" : "", "suffix" : "Brewing", "zip" : "92120", "twit" : { "name" : "BenchmarkBrew", "user_id" : "415081072", "img" : "" }, "insta" : { "name" : "benchmarkbrewing", "place_id" : "", "user_id" : "" }, "fb" : { "url" : "facebook.com/Benchmarkbrewing?fref=ts", "page_id" : "", "place_id" : "" }, "url" : "benchmarkbrewing.com", "chk" : { "growlers" : true, "fams" : true, "dogs" : true, "trucks" : true, "foods" : false }, "lat" : 32.78592342, "lng" : -117.1033711 },{ "_id" : { "$oid" : "546da93ebd88977c821bc7c5" }, "addr" : "10960 Wheatlands Ave #101", "city" : "Santee", "name" : "BNS", "phone" : "(619) 956-0952", "slug" : "bns", "state" : "CA", "sublocation" : "", "suffix" : "Brewing &amp; Distilling Co", "zip" : "92071", "twit" : { "name" : "BNSCraftBrewing", "user_id" : "BNSCraftBrewing", "img" : "" }, "insta" : { "name" : "bnsbrewinganddistilling", "place_id" : "", "user_id" : "" }, "fb" : { "url" : "facebook.com/BNSBrewingDistillingCo", "page_id" : "", "place_id" : "" }, "url" : "bnsbrewinganddistilling.com", "chk" : { "growlers" : false, "fams" : false, "dogs" : false, "trucks" : false, "foods" : false }, "lat" : 32.84530802, "lng" : -116.959694 },{ "_id" : { "$oid" : "546da93ebd88977c821bc7c6" }, "addr" : "8179 Center St", "city" : "La Mesa", "name" : "Bolt ", "phone" : "(619) 303-7837", "slug" : "bolt", "state" : "CA", "sublocation" : "", "suffix" : "Brewery", "zip" : "91942", "twit" : { "name" : "BoltBrewery", "user_id" : "", "img" : "" }, "insta" : { "name" : "n/a", "place_id" : "", "user_id" : "" }, "fb" : { "url" : "facebook.com/boltbrewery", "page_id" : "", "place_id" : "" }, "url" : "boltbrewery.com", "chk" : { "growlers" : false, "fams" : false, "dogs" : false, "trucks" : false, "foods" : false }, "lat" : 32.77056002, "lng" : -117.021798 },{ "_id" : { "$oid" : "546da93ebd88977c821bc7c7" }, "addr" : "2545 Progress St", "city" : "Vista", "name" : "Booze Brothers", "phone" : "(760)295-0217", "slug" : "booze-brothers", "state" : "CA", "sublocation" : "", "suffix" : "", "zip" : "92081", "twit" : { "name" : "BoozeBrosBrew", "user_id" : "1276460142", "img" : "" }, "insta" : { "name" : "boozebros", "place_id" : "", "user_id" : "" }, "fb" : { "url" : "facebook.com/boozebrothersbrewery", "page_id" : "", "place_id" : "" }, "url" : "boozebrothersbrewery.com", "chk" : { "growlers" : false, "fams" : false, "dogs" : false, "trucks" : false, "foods" : false }, "lat" : 33.14682302, "lng" : -117.219396 },{ "_id" : { "$oid" : "546da93ebd88977c821bc7c8" }, "addr" : "8684 Avenida de la Fuente Suite 8", "city" : "San Diego", "name" : "Border X ", "phone" : "(619) 787-6176", "slug" : "border-x-otay-main-brewery", "state" : "CA", "sublocation" : "Otay Main Brewery", "suffix" : "Brewing", "zip" : "92154", "twit" : { "name" : "BorderXBrewing", "user_id" : "985698811", "img" : "" }, "insta" : { "name" : "borderxbrewing", "place_id" : "", "user_id" : "" }, "fb" : { "url" : "facebook.com/pages/Border-X-Brewing/153011721527877", "page_id" : "", "place_id" : "" }, "url" : "borderxbrewing.com", "chk" : { "growlers" : false, "fams" : false, "dogs" : false, "trucks" : false, "foods" : false }, "lat" : 32.55529032, "lng" : -116.9581478 },{ "_id" : { "$oid" : "546da93ebd88977c821bc7c9" }, "addr" : "101 N Coast Hwy", "city" : "Oceanside", "name" : "Breakwater ", "phone" : "(760) 433-6064", "slug" : "breakwater", "state" : "CA", "sublocation" : "", "suffix" : "Brewing Co", "zip" : "92054", "twit" : { "name" : "Breakwaterbrew", "user_id" : "47210311", "img" : "" }, "insta" : { "name" : "n/a", "place_id" : "", "user_id" : "" }, "fb" : { "url" : "facebook.com/pages/Breakwater-Brewing-Company/92183371892", "page_id" : "", "place_id" : "" }, "url" : "breakwaterbrewing.com", "chk" : { "growlers" : true, "fams" : true, "dogs" : false, "trucks" : false, "foods" : true }, "lat" : 33.19368962, "lng" : -117.3807336 },{ "_id" : { "$oid" : "546da93ebd88977c821bc7ca" }, "addr" : "9962 Prospect Ave", "city" : "Santee", "name" : "Butcher's ", "phone" : "(619) 334-2222", "slug" : "butcher's", "state" : "CA", "sublocation" : "", "suffix" : "Brewing", "zip" : "92071", "twit" : { "name" : "butchersbrewing", "user_id" : "1163380861", "img" : "" }, "insta" : { "name" : "butchersbrewing", "place_id" : "", "user_id" : "" }, "fb" : { "url" : "facebook.com/ButchersBrewing", "page_id" : "213688238691218", "place_id" : "" }, "url" : "butchersbrewing.com", "chk" : { "growlers" : true, "fams" : false, "dogs" : true, "trucks" : true, "foods" : false }, "lat" : 32.83073462, "lng" : -116.9809785 },{ "_id" : { "$oid" : "546da93ebd88977c821bc7cb" }, "addr" : "", "city" : "", "name" : "Callahan's", "phone" : "", "slug" : "callahan's", "state" : "", "sublocation" : "", "suffix" : "Pub &amp; Brewery", "zip" : "", "twit" : { "name" : "", "user_id" : "", "img" : "" }, "insta" : { "name" : "", "place_id" : "", "user_id" : "" }, "fb" : { "url" : "", "page_id" : "", "place_id" : "" }, "url" : "", "chk" : { "growlers" : true, "fams" : true, "dogs" : true, "trucks" : false, "foods" : true }, "lat" : NaN, "lng" : NaN },{ "_id" : { "$oid" : "546da93ebd88977c821bc7cc" }, "addr" : "2330 Main St, Suite C", "city" : "Ramona", "name" : "ChuckAlek", "phone" : "(513) 465-9768", "slug" : "chuckalek", "state" : "CA", "sublocation" : "", "suffix" : "Independent Brewers", "zip" : "92065", "twit" : { "name" : "ChuckAlek", "user_id" : "558320276", "img" : "" }, "insta" : { "name" : "chuckalek", "place_id" : "", "user_id" : "" }, "fb" : { "url" : "facebook.com/chuckalek", "page_id" : "", "place_id" : "" }, "url" : "chuckalek.com", "chk" : { "growlers" : true, "fams" : true, "dogs" : true, "trucks" : true, "foods" : false }, "lat" : 33.02644702, "lng" : -116.8904995 },{ "_id" : { "$oid" : "546da93ebd88977c821bc7cd" }, "addr" : "170 Orange Ave", "city" : "Coronado", "name" : "Coronado", "phone" : "(619) 437-4452", "slug" : "coronado-brew-pub", "state" : "CA", "sublocation" : "Brew Pub", "suffix" : "Brewing Company", "zip" : "92118", "twit" : { "name" : "CoronadoBrewing", "user_id" : "34965429", "img" : "" }, "insta" : { "name" : "coronadobrewing", "place_id" : "", "user_id" : "" }, "fb" : { "url" : "facebook.com/coronadobrewingcompany", "page_id" : "64956851583", "place_id" : "" }, "url" : "coronadobrewingcompany.com", "chk" : { "growlers" : true, "fams" : true, "dogs" : true, "trucks" : false, "foods" : true }, "lat" : 32.69642242, "lng" : -117.1745522 },{ "_id" : { "$oid" : "546da93ebd88977c821bc7ce" }, "addr" : "1205 Knoxville St", "city" : "San Diego", "name" : "Coronado", "phone" : "(619) 275-2215", "slug" : "coronado-tasting-room", "state" : "CA", "sublocation" : "Tasting Room", "suffix" : "Brewing Company", "zip" : "92110", "twit" : { "name" : "CoronadoBrewing", "user_id" : "34965429", "img" : "" }, "insta" : { "name" : "coronadobrewing", "place_id" : "", "user_id" : "" }, "fb" : { "url" : "facebook.com/coronadobrewingcompany", "page_id" : "", "place_id" : "" }, "url" : "coronadobrewingcompany.com", "chk" : { "growlers" : true, "fams" : true, "dogs" : true, "trucks" : true, "foods" : false }, "lat" : 32.77054162, "lng" : -117.2061368 },{ "_id" : { "$oid" : "546da93ebd88977c821bc7cf" }, "addr" : "7705 Convoy Ct", "city" : "San Diego", "name" : "Council", "phone" : "(858) 256-0038", "slug" : "council", "state" : "CA", "sublocation" : "", "suffix" : "Brewing Company", "zip" : "92111", "twit" : { "name" : "CouncilBrewing", "user_id" : "1383032125", "img" : "" }, "insta" : { "name" : "councilbrewing", "place_id" : "", "user_id" : "" }, "fb" : { "url" : "facebook.com/councilbrewing", "page_id" : "", "place_id" : "" }, "url" : "councilbrew.com", "chk" : { "growlers" : true, "fams" : true, "dogs" : false, "trucks" : true, "foods" : false }, "lat" : 32.83339977, "lng" : -117.1557141 },{ "_id" : { "$oid" : "546da93ebd88977c821bc7d0" }, "addr" : "111 S Cedros Ave Suite 200", "city" : "Solana Beach", "name" : "Culture ", "phone" : "(858) 345-1154", "slug" : "culture", "state" : "CA", "sublocation" : "", "suffix" : "Brewing Co", "zip" : "92075", "twit" : { "name" : "culturebrewco", "user_id" : "1249457238", "img" : "" }, "insta" : { "name" : "culturebrewingco", "place_id" : "", "user_id" : "" }, "fb" : { "url" : "facebook.com/CultureBrewingCo", "page_id" : "175746359238945", "place_id" : "" }, "url" : "culturebrewingco.com", "chk" : { "growlers" : true, "fams" : true, "dogs" : true, "trucks" : false, "foods" : false }, "lat" : 32.99019562, "lng" : -117.2720732 },{ "_id" : { "$oid" : "546da93ebd88977c821bc7d1" }, "addr" : "1241 Linda Vista Dr", "city" : "San Marcos", "name" : "Dos Desperados", "phone" : "(760) 566-6209", "slug" : "dos-desperados", "state" : "CA", "sublocation" : "", "suffix" : "Brewery", "zip" : "92078", "twit" : { "name" : "dosdesperados", "user_id" : "2321195148", "img" : "" }, "insta" : { "name" : "dosdesperados", "place_id" : "", "user_id" : "" }, "fb" : { "url" : "facebook.com/pages/Dos-Desperados-Brewery/564232830293770", "page_id" : "", "place_id" : "" }, "url" : "dosdesperadosbrew.com", "chk" : { "growlers" : true, "fams" : false, "dogs" : true, "trucks" : true, "foods" : false }, "lat" : 33.13597302, "lng" : -117.1948893 },{ "_id" : { "$oid" : "546da93ebd88977c821bc7d2" }, "addr" : "", "city" : "", "name" : "Gordon Biersch", "phone" : "", "slug" : "gordon-biersch", "state" : "", "sublocation" : "", "suffix" : "", "zip" : "", "twit" : { "name" : "", "user_id" : "", "img" : "" }, "insta" : { "name" : "", "place_id" : "", "user_id" : "" }, "fb" : { "url" : "", "page_id" : "", "place_id" : "" }, "url" : "", "chk" : { "growlers" : true, "fams" : true, "dogs" : false, "trucks" : false, "foods" : true }, "lat" : NaN, "lng" : NaN },{ "_id" : { "$oid" : "546da93fbd88977c821bc7d3" }, "addr" : "6550 Mira Mesa Blvd", "city" : "San Diego", "name" : "Green Flash", "phone" : "(858) 622-0085", "slug" : "green-flash", "state" : "CA", "sublocation" : "", "suffix" : "Brewing Company", "zip" : "92121", "twit" : { "name" : "Greenflashbeer", "user_id" : "55401333", "img" : "" }, "insta" : { "name" : "greenflashbeer", "place_id" : "", "user_id" : "" }, "fb" : { "url" : "facebook.com/GreenFlashBrew", "page_id" : "", "place_id" : "" }, "url" : "greenflashbrew.com", "chk" : { "growlers" : true, "fams" : true, "dogs" : true, "trucks" : true, "foods" : true }, "lat" : 32.90577512, "lng" : -117.1791638 },{ "_id" : { "$oid" : "546da93fbd88977c821bc7d4" }, "addr" : "6304 Riverdale St", "city" : "San Diego", "name" : "Groundswell ", "phone" : "(619) 795-2337", "slug" : "groundswell", "state" : "CA", "sublocation" : "", "suffix" : "Brewing Co", "zip" : "92120", "twit" : { "name" : "GroundswellBrew", "user_id" : "1414326901", "img" : "" }, "insta" : { "name" : "groundswellbrew", "place_id" : "", "user_id" : "" }, "fb" : { "url" : "facebook.com/GroundswellBrew", "page_id" : "", "place_id" : "" }, "url" : "groundswellbrew.com", "chk" : { "growlers" : true, "fams" : true, "dogs" : false, "trucks" : true, "foods" : false }, "lat" : 32.78764622, "lng" : -117.1011362 },{ "_id" : { "$oid" : "546da93fbd88977c821bc7d5" }, "addr" : "5640 Kearny Mesa Rd", "city" : "San Diego", "name" : "Helms ", "phone" : "(858) 384-2772", "slug" : "helms", "state" : "CA", "sublocation" : "", "suffix" : "Brewing Co", "zip" : "92111", "twit" : { "name" : "HelmsBrewingCo", "user_id" : "433931101", "img" : "" }, "insta" : { "name" : "helmsbrew", "place_id" : "", "user_id" : "" }, "fb" : { "url" : "facebook.com/HelmsBrewingCo", "page_id" : "", "place_id" : "" }, "url" : "helmsbrewingco.com", "chk" : { "growlers" : true, "fams" : true, "dogs" : true, "trucks" : false, "foods" : false }, "lat" : 32.83594032, "lng" : -117.1403661 },{ "_id" : { "$oid" : "546da93fbd88977c821bc7d6" }, "addr" : "1458 University Ave", "city" : "San Diego", "name" : "Hillcrest ", "phone" : "(619) 269-4323", "slug" : "hillcrest", "state" : "CA", "sublocation" : "", "suffix" : "Brewing Co", "zip" : "92103", "twit" : { "name" : "QueensOfBeer", "user_id" : "", "img" : "" }, "insta" : { "name" : "mosuniverse", "place_id" : "", "user_id" : "" }, "fb" : { "url" : "facebook.com/HillcrestBrewingCompany", "page_id" : "", "place_id" : "" }, "url" : "hillcrestbrewingcompany.com", "chk" : { "growlers" : true, "fams" : true, "dogs" : false, "trucks" : false, "foods" : true }, "lat" : 32.74775702, "lng" : -117.1512604 },{ "_id" : { "$oid" : "546da93fbd88977c821bc7d7" }, "addr" : "2911 El Cajon Blvd, Space 2", "city" : "San Diego", "name" : "Home ", "phone" : "(619) 450-6165", "slug" : "home", "state" : "CA", "sublocation" : "", "suffix" : "Brewing Co", "zip" : "92104", "twit" : { "name" : "homebrewerSD", "user_id" : "", "img" : "" }, "insta" : { "name" : "thehomebrewersd", "place_id" : "", "user_id" : "" }, "fb" : { "url" : "facebook.com/thehomebrewersd", "page_id" : "", "place_id" : "" }, "url" : "thehomebrewersd.com", "chk" : { "growlers" : true, "fams" : true, "dogs" : true, "trucks" : false, "foods" : false }, "lat" : NaN, "lng" : NaN },{ "_id" : { "$oid" : "546da93fbd88977c821bc7d8" }, "addr" : "2379 La Mirada Dr", "city" : "Vista", "name" : "Indian Joe", "phone" : "(760) 295-3945", "slug" : "indian-joe", "state" : "CA", "sublocation" : "", "suffix" : "Brewing", "zip" : "92081", "twit" : { "name" : "IndianJoeBeer", "user_id" : "739511028", "img" : "" }, "insta" : { "name" : "indianjoebrewing", "place_id" : "", "user_id" : "" }, "fb" : { "url" : "facebook.com/IndianJoeBrewingInc", "page_id" : "", "place_id" : "" }, "url" : "indianjoebrewing.com", "chk" : { "growlers" : false, "fams" : true, "dogs" : true, "trucks" : true, "foods" : true }, "lat" : 33.15087242, "lng" : -117.2294536 },{ "_id" : { "$oid" : "546da93fbd88977c821bc7d9" }, "addr" : "9835 Carroll Centre Rd", "city" : "San Diego", "name" : "Intergalactic ", "phone" : "(858) 750-0601", "slug" : "intergalactic", "state" : "CA", "sublocation" : "", "suffix" : "Brewing Company", "zip" : "92126", "twit" : { "name" : "GalacticBrew", "user_id" : "465999585", "img" : "" }, "insta" : { "name" : "n/a", "place_id" : "", "user_id" : "" }, "fb" : { "url" : "facebook.com/pages/Intergalactic-Brewing-Company/269611406418744", "page_id" : "", "place_id" : "" }, "url" : "intergalacticbrew.com", "chk" : { "growlers" : true, "fams" : true, "dogs" : true, "trucks" : true, "foods" : false }, "lat" : 32.89742352, "lng" : -117.1219843 },{ "_id" : { "$oid" : "546da93fbd88977c821bc7da" }, "addr" : "1305 Hot Spring Way", "city" : "Vista", "name" : "Iron Fist ", "phone" : "(760) 216-6500", "slug" : "iron-fist", "state" : "CA", "sublocation" : "", "suffix" : "Brewing Co", "zip" : "92081", "twit" : { "name" : "IronFistBrewing", "user_id" : "62378276", "img" : "" }, "insta" : { "name" : "n/a", "place_id" : "", "user_id" : "" }, "fb" : { "url" : "facebook.com/IronFistBrewing", "page_id" : "", "place_id" : "" }, "url" : "ironfistbrewing.com", "chk" : { "growlers" : true, "fams" : true, "dogs" : true, "trucks" : true, "foods" : false }, "lat" : 33.14411942, "lng" : -117.2400631 },{ "_id" : { "$oid" : "546da93fbd88977c821bc7db" }, "addr" : "5985 Santa Fe St", "city" : "San Diego", "name" : "Karl Strauss", "phone" : "(858) 273-2739", "slug" : "karl-strauss", "state" : "CA", "sublocation" : "", "suffix" : "Brewing Company", "zip" : "92109", "twit" : { "name" : "Karl_Strauss", "user_id" : "19298578", "img" : "" }, "insta" : { "name" : "", "place_id" : "", "user_id" : "" }, "fb" : { "url" : "facebook.com/KarlStraussBrewingCompany", "page_id" : "", "place_id" : "" }, "url" : "karlstrauss.com", "chk" : { "growlers" : true, "fams" : true, "dogs" : false, "trucks" : true, "foods" : false }, "lat" : NaN, "lng" : NaN },{ "_id" : { "$oid" : "546da93fbd88977c821bc7dc" }, "addr" : "1157 Columbia St", "city" : "San Diego", "name" : "Karl Strauss", "phone" : "(619) 234-2739", "slug" : "karl-strauss-downtown", "state" : "CA", "sublocation" : "Downtown", "suffix" : "Brewing Company", "zip" : "92101", "twit" : { "name" : "Karl_Strauss", "user_id" : "19298578", "img" : "" }, "insta" : { "name" : "", "place_id" : "", "user_id" : "" }, "fb" : { "url" : "facebook.com/KarlStraussBrewingCompany", "page_id" : "", "place_id" : "" }, "url" : "karlstrauss.com", "chk" : { "growlers" : true, "fams" : true, "dogs" : false, "trucks" : false, "foods" : true }, "lat" : 32.71610102, "lng" : -117.168455 },{ "_id" : { "$oid" : "546da93fbd88977c821bc7dd" }, "addr" : "10448 Reserve Dr", "city" : "San Diego", "name" : "Karl Strauss", "phone" : "(858) 376-2739", "slug" : "karl-strauss-4s-ranch", "state" : "CA", "sublocation" : "4S Ranch", "suffix" : "Brewing Company", "zip" : "92127", "twit" : { "name" : "Karl_Strauss", "user_id" : "19298578", "img" : "" }, "insta" : { "name" : "", "place_id" : "", "user_id" : "" }, "fb" : { "url" : "facebook.com/KarlStraussBrewingCompany", "page_id" : "", "place_id" : "" }, "url" : "karlstrauss.com", "chk" : { "growlers" : true, "fams" : true, "dogs" : false, "trucks" : false, "foods" : true }, "lat" : NaN, "lng" : NaN },{ "_id" : { "$oid" : "546da93fbd88977c821bc7de" }, "addr" : "5801 Armada Dr", "city" : "Carlsbad", "name" : "Karl Strauss", "phone" : "760-431-2739", "slug" : "karl-strauss-carlsbad", "state" : "CA", "sublocation" : "Carlsbad", "suffix" : "Brewing Company", "zip" : "92008", "twit" : { "name" : "Karl_Strauss", "user_id" : "19298578", "img" : "" }, "insta" : { "name" : "", "place_id" : "", "user_id" : "" }, "fb" : { "url" : "facebook.com/KarlStraussBrewingCompany", "page_id" : "", "place_id" : "" }, "url" : "karlstrauss.com", "chk" : { "growlers" : true, "fams" : true, "dogs" : false, "trucks" : false, "foods" : true }, "lat" : NaN, "lng" : NaN },{ "_id" : { "$oid" : "546da93fbd88977c821bc7df" }, "addr" : "1044 Wall St", "city" : "La Jolla", "name" : "Karl Strauss", "phone" : "858-551-2739", "slug" : "karl-strauss-la-jolla", "state" : "CA", "sublocation" : "La Jolla", "suffix" : "Brewing Company", "zip" : "92037", "twit" : { "name" : "Karl_Strauss", "user_id" : "19298578", "img" : "" }, "insta" : { "name" : "", "place_id" : "", "user_id" : "" }, "fb" : { "url" : "facebook.com/KarlStraussBrewingCompany", "page_id" : "", "place_id" : "" }, "url" : "karlstrauss.com", "chk" : { "growlers" : true, "fams" : true, "dogs" : false, "trucks" : false, "foods" : true }, "lat" : NaN, "lng" : NaN },{ "_id" : { "$oid" : "546da93fbd88977c821bc7e0" }, "addr" : "9675 Scranton Rd ", "city" : "San Diego", "name" : "Karl Strauss", "phone" : "858-587-2739", "slug" : "karl-strauss-sorrento-mesa", "state" : "CA", "sublocation" : "Sorrento Mesa", "suffix" : "Brewing Company", "zip" : "92121", "twit" : { "name" : "Karl_Strauss", "user_id" : "19298578", "img" : "" }, "insta" : { "name" : "", "place_id" : "", "user_id" : "" }, "fb" : { "url" : "facebook.com/KarlStraussBrewingCompany", "page_id" : "", "place_id" : "" }, "url" : "karlstrauss.com", "chk" : { "growlers" : true, "fams" : true, "dogs" : false, "trucks" : false, "foods" : true }, "lat" : NaN, "lng" : NaN },{ "_id" : { "$oid" : "546da93fbd88977c821bc7e1" }, "addr" : "7536 Fay Ave", "city" : "La Jolla", "name" : "La Jolla", "phone" : "(858) 246-6759", "slug" : "la-jolla", "state" : "CA", "sublocation" : "", "suffix" : "Brewing Company", "zip" : "92037", "twit" : { "name" : "LaJollaBrewing", "user_id" : "1419355110", "img" : "" }, "insta" : { "name" : "lajollabrewing", "place_id" : "", "user_id" : "" }, "fb" : { "url" : "facebook.com/LaJollaBrewingCompany", "page_id" : "", "place_id" : "" }, "url" : "lajollabeer.com", "chk" : { "growlers" : true, "fams" : true, "dogs" : true, "trucks" : false, "foods" : true }, "lat" : 32.83946582, "lng" : -117.2757105 },{ "_id" : { "$oid" : "546da93fbd88977c821bc7e2" }, "addr" : "1430 Vantage Court, Suite 104", "city" : "Vista", "name" : "Latitude 33 ", "phone" : ", (760) 598-2337", "slug" : "latitude-33", "state" : "CA", "sublocation" : "", "suffix" : "Brewing Co", "zip" : "92081", "twit" : { "name" : "lat33brew", "user_id" : "364381689", "img" : "" }, "insta" : { "name" : "n/a", "place_id" : "", "user_id" : "" }, "fb" : { "url" : "facebook.com/latitude33brewing", "page_id" : "", "place_id" : "" }, "url" : "lat33brew.com", "chk" : { "growlers" : true, "fams" : true, "dogs" : true, "trucks" : true, "foods" : false }, "lat" : 33.13493532, "lng" : -117.2258349 },{ "_id" : { "$oid" : "546da93fbd88977c821bc7e3" }, "addr" : "363 Airport Rd", "city" : "Oceanside", "name" : "Legacy ", "phone" : "(760) 705-3221", "slug" : "legacy", "state" : "CA", "sublocation" : "", "suffix" : "Brewing Co", "zip" : "92058", "twit" : { "name" : "LegacyBrewingCo", "user_id" : "", "img" : "" }, "insta" : { "name" : "legacybrewing", "place_id" : "", "user_id" : "" }, "fb" : { "url" : "facebook.com/LegacyBrewingCompany", "page_id" : "", "place_id" : "" }, "url" : "legacybrewingco.com", "chk" : { "growlers" : true, "fams" : true, "dogs" : false, "trucks" : true, "foods" : false }, "lat" : 33.21404112, "lng" : -117.3521188 },{ "_id" : { "$oid" : "546da93fbd88977c821bc7e4" }, "addr" : "13200 Kirkham Way", "city" : "Poway", "name" : "Lightning ", "phone" : "(858) 513-8070", "slug" : "lightning", "state" : "CA", "sublocation" : "", "suffix" : "Brewery", "zip" : "92064", "twit" : { "name" : "lightningbrew", "user_id" : "", "img" : "" }, "insta" : { "name" : "n/a", "place_id" : "", "user_id" : "" }, "fb" : { "url" : "facebook.com/lightningbrewery", "page_id" : "", "place_id" : "" }, "url" : "lightningbrewery.com", "chk" : { "growlers" : true, "fams" : true, "dogs" : false, "trucks" : true, "foods" : false }, "lat" : 32.93417072, "lng" : -117.0447903 },{ "_id" : { "$oid" : "546da93fbd88977c821bc7e5" }, "addr" : "155 Mata Way #104", "city" : "San Marcos", "name" : "Lost Abbey", "phone" : "(800) 918-6816", "slug" : "lost-abbey", "state" : "CA", "sublocation" : "", "suffix" : "", "zip" : "92069", "twit" : { "name" : "lostabbey", "user_id" : "19822242", "img" : "" }, "insta" : { "name" : "lostabbey", "place_id" : "", "user_id" : "" }, "fb" : { "url" : "facebook.com/port.lostabbey", "page_id" : "", "place_id" : "" }, "url" : "lostabbey.com", "chk" : { "growlers" : false, "fams" : false, "dogs" : false, "trucks" : false, "foods" : false }, "lat" : 33.14027832, "lng" : -117.1506161 },{ "_id" : { "$oid" : "546da93fbd88977c821bc7e6" }, "addr" : "5595 Magnatron Blvd, Ste. O", "city" : "San Diego", "name" : "Magnetic", "phone" : "(858) 222-1668", "slug" : "magnetic", "state" : "CA", "sublocation" : "", "suffix" : "Brewing", "zip" : "92111", "twit" : { "name" : "magneticbrewing", "user_id" : "", "img" : "" }, "insta" : { "name" : "magneticbrewing", "place_id" : "", "user_id" : "" }, "fb" : { "url" : "facebook.com/MagneticBrewing", "page_id" : "", "place_id" : "" }, "url" : "magneticbrewing.com", "chk" : { "growlers" : true, "fams" : true, "dogs" : true, "trucks" : false, "foods" : false }, "lat" : NaN, "lng" : NaN },{ "_id" : { "$oid" : "546da93fbd88977c821bc7e7" }, "addr" : "7955 Silverton Ave", "city" : "San Diego", "name" : "Mike Hess ", "phone" : "(619) 786-4377", "slug" : "mike-hess", "state" : "CA", "sublocation" : "", "suffix" : "Brewing Co", "zip" : "92126", "twit" : { "name" : "MHB", "user_id" : "50154421", "img" : "" }, "insta" : { "name" : "n/a", "place_id" : "", "user_id" : "" }, "fb" : { "url" : "facebook.com/MikeHessBrewingCoNorthPark", "page_id" : "", "place_id" : "" }, "url" : "mikehessbrewing.com", "chk" : { "growlers" : true, "fams" : true, "dogs" : true, "trucks" : true, "foods" : false }, "lat" : NaN, "lng" : NaN },{ "_id" : { "$oid" : "546da93fbd88977c821bc7e8" }, "addr" : "3812 Grim Ave", "city" : "San Diego", "name" : "Mike Hess ", "phone" : "(619) 255-7136", "slug" : "mike-hess-north-park", "state" : "CA", "sublocation" : "North Park", "suffix" : "Brewing Co", "zip" : "92104", "twit" : { "name" : "MHB", "user_id" : "50154421", "img" : "" }, "insta" : { "name" : "n/a", "place_id" : "", "user_id" : "" }, "fb" : { "url" : "facebook.com/MikeHessBrewingCoNorthPark", "page_id" : "", "place_id" : "" }, "url" : "mikehessbrewing.com", "chk" : { "growlers" : true, "fams" : true, "dogs" : true, "trucks" : true, "foods" : false }, "lat" : 32.74634532, "lng" : -117.1298062 },{ "_id" : { "$oid" : "546da93fbd88977c821bc7e9" }, "addr" : "1441 L St", "city" : "San Diego", "name" : "Mission ", "phone" : "(619) 544-0555", "slug" : "mission", "state" : "CA", "sublocation" : "", "suffix" : "Brewery", "zip" : "92101", "twit" : { "name" : "missionbrewery", "user_id" : "220845243", "img" : "" }, "insta" : { "name" : "missionbrewery", "place_id" : "", "user_id" : "" }, "fb" : { "url" : "facebook.com/MissionBrewery", "page_id" : "", "place_id" : "" }, "url" : "missionbrewery.com", "chk" : { "growlers" : true, "fams" : true, "dogs" : true, "trucks" : true, "foods" : false }, "lat" : 32.70579872, "lng" : -117.1529406 },{ "_id" : { "$oid" : "546da93fbd88977c821bc7ea" }, "addr" : "3725 Greenwood St.", "city" : "San Dieog", "name" : "Modern Times ", "phone" : "619-546-9694", "slug" : "modern-times", "state" : "CA", "sublocation" : "", "suffix" : "Beer", "zip" : "92110", "twit" : { "name" : "ModernTimesBeer", "user_id" : "", "img" : "" }, "insta" : { "name" : "moderntimesbeer", "place_id" : "", "user_id" : "" }, "fb" : { "url" : "facebook.com/ModernTimesIsYourFriend", "page_id" : "", "place_id" : "" }, "url" : "moderntimesbeer.com", "chk" : { "growlers" : true, "fams" : true, "dogs" : false, "trucks" : true, "foods" : false }, "lat" : 32.75289812, "lng" : -117.2075676 },{ "_id" : { "$oid" : "546da93fbd88977c821bc7eb" }, "addr" : "3000 Upas St", "city" : "San Diego", "name" : "Modern Times", "phone" : "619-269-5222", "slug" : "modern-times-flavordome", "state" : "CA", "sublocation" : "FLAVORDOME", "suffix" : "Beer", "zip" : "92104", "twit" : { "name" : "ModernTimesBeer", "user_id" : "", "img" : "" }, "insta" : { "name" : "moderntimesbeer", "place_id" : "", "user_id" : "" }, "fb" : { "url" : "facebook.com/ModernTimesIsYourFriend", "page_id" : "", "place_id" : "" }, "url" : "moderntimesbeer.com", "chk" : { "growlers" : false, "fams" : false, "dogs" : false, "trucks" : false, "foods" : false }, "lat" : NaN, "lng" : NaN },{ "_id" : { "$oid" : "546da93fbd88977c821bc7ec" }, "addr" : "805 16th St", "city" : "San Diego", "name" : "Monkey Paw", "phone" : "(619) 358-9901", "slug" : "monkey-paw", "state" : "CA", "sublocation" : "", "suffix" : "Pub &amp; Brewery", "zip" : "92101", "twit" : { "name" : "MonkeyPawBrew", "user_id" : "", "img" : "" }, "insta" : { "name" : "n/a", "place_id" : "", "user_id" : "" }, "fb" : { "url" : "facebook.com/monkeypawbrewing", "page_id" : "", "place_id" : "" }, "url" : "monkeypawbrewing.com", "chk" : { "growlers" : true, "fams" : false, "dogs" : false, "trucks" : false, "foods" : true }, "lat" : 32.71251202, "lng" : -117.1505953 },{ "_id" : { "$oid" : "546da93fbd88977c821bc7ed" }, "addr" : "206 Main Street", "city" : "Vista", "name" : "Mother Earth ", "phone" : "(760) 726-2273", "slug" : "mother-earth-tap-house", "state" : "CA", "sublocation" : "Tap House", "suffix" : "Brew Co", "zip" : "92084", "twit" : { "name" : "MotherEarthBrCo", "user_id" : "110548722", "img" : "" }, "insta" : { "name" : "n/a", "place_id" : "", "user_id" : "" }, "fb" : { "url" : "facebook.com/MotherEarthBrewCo", "page_id" : "", "place_id" : "" }, "url" : "motherearthbrewco.com", "chk" : { "growlers" : true, "fams" : true, "dogs" : true, "trucks" : false, "foods" : true }, "lat" : 33.20110612, "lng" : -117.2436859 },{ "_id" : { "$oid" : "546da93fbd88977c821bc7ee" }, "addr" : "2055 Thibodo Road, Suite H", "city" : "Vista", "name" : "Mother Earth ", "phone" : "(760) 599-4225", "slug" : "mother-earth-original-tasting-room", "state" : "CA", "sublocation" : "Original Tasting Room", "suffix" : "Brew Co", "zip" : "92081", "twit" : { "name" : "MotherEarthBrCo", "user_id" : "110548722", "img" : "" }, "insta" : { "name" : "n/a", "place_id" : "", "user_id" : "" }, "fb" : { "url" : "facebook.com/MotherEarthBrewCo", "page_id" : "", "place_id" : "" }, "url" : "motherearthbrewco.com", "chk" : { "growlers" : true, "fams" : true, "dogs" : true, "trucks" : false, "foods" : false }, "lat" : 33.16642162, "lng" : -117.2216806 },{ "_id" : { "$oid" : "546da93fbd88977c821bc7ef" }, "addr" : "11545 Sorrento Valley Rd", "city" : "San Diego", "name" : "New English", "phone" : "(619) 857-8023", "slug" : "new-english", "state" : "CA", "sublocation" : "", "suffix" : "Brewing Company", "zip" : "92121", "twit" : { "name" : "NewEnglishBrew", "user_id" : "865279142", "img" : "" }, "insta" : { "name" : "n/a", "place_id" : "", "user_id" : "" }, "fb" : { "url" : "facebook.com/pages/New-English-Brewing/175258044381", "page_id" : "", "place_id" : "" }, "url" : "newenglishbrewing.com", "chk" : { "growlers" : true, "fams" : true, "dogs" : true, "trucks" : true, "foods" : false }, "lat" : 32.91125602, "lng" : -117.231835 },{ "_id" : { "$oid" : "546da93fbd88977c821bc7f0" }, "addr" : "1485 Hollow Glen Rd", "city" : "Julian", "name" : "Nickel ", "phone" : "(760) 765-2337", "slug" : "nickel", "state" : "CA", "sublocation" : "", "suffix" : "Beer Company", "zip" : "92036", "twit" : { "name" : "NickelBeerCo", "user_id" : "", "img" : "" }, "insta" : { "name" : "n/a", "place_id" : "", "user_id" : "" }, "fb" : { "url" : "facebook.com/NickelBeerCompany", "page_id" : "", "place_id" : "" }, "url" : "nickelbeerco.com", "chk" : { "growlers" : true, "fams" : false, "dogs" : true, "trucks" : false, "foods" : false }, "lat" : 33.07512282, "lng" : -116.5919472 },{ "_id" : { "$oid" : "546da93fbd88977c821bc7f1" }, "addr" : "1800 Ord Way", "city" : "Oceanside", "name" : "Oceanside ", "phone" : "(760) 721-4253", "slug" : "oceanside", "state" : "CA", "sublocation" : "", "suffix" : "Ale Works", "zip" : "92056", "twit" : { "name" : "OAWBREW", "user_id" : "", "img" : "" }, "insta" : { "name" : "n/a", "place_id" : "", "user_id" : "" }, "fb" : { "url" : "facebook.com/OAWBREW", "page_id" : "", "place_id" : "" }, "url" : "oceansidealeworks.net", "chk" : { "growlers" : true, "fams" : true, "dogs" : true, "trucks" : true, "foods" : false }, "lat" : 33.20840042, "lng" : -117.2762484 },{ "_id" : { "$oid" : "546da93fbd88977c821bc7f2" }, "addr" : "1223 Pacific Oaks Pl", "city" : "Escondido", "name" : "Offbeat ", "phone" : "(760) 294-4045", "slug" : "offbeat", "state" : "CA", "sublocation" : "", "suffix" : "Brewing Co", "zip" : "92029", "twit" : { "name" : "offbeatbrewing", "user_id" : "552255943", "img" : "" }, "insta" : { "name" : "n/a", "place_id" : "", "user_id" : "" }, "fb" : { "url" : "facebook.com/offbeatbrewing", "page_id" : "", "place_id" : "" }, "url" : "offbeatbrewing.com", "chk" : { "growlers" : true, "fams" : true, "dogs" : true, "trucks" : true, "foods" : false }, "lat" : 33.10723142, "lng" : -117.1185287 },{ "_id" : { "$oid" : "546da93fbd88977c821bc7f3" }, "addr" : "", "city" : "", "name" : "Oggi's", "phone" : "", "slug" : "oggi's-carmel-mountain-ranch", "state" : "", "sublocation" : "Carmel Mountain Ranch", "suffix" : "", "zip" : "", "twit" : { "name" : "", "user_id" : "", "img" : "" }, "insta" : { "name" : "", "place_id" : "", "user_id" : "" }, "fb" : { "url" : "", "page_id" : "", "place_id" : "" }, "url" : "", "chk" : { "growlers" : true, "fams" : true, "dogs" : false, "trucks" : false, "foods" : true }, "lat" : NaN, "lng" : NaN },{ "_id" : { "$oid" : "546da93fbd88977c821bc7f4" }, "addr" : "", "city" : "", "name" : "Oggi's", "phone" : "", "slug" : "oggi's-mission-valley", "state" : "", "sublocation" : "Mission Valley", "suffix" : "", "zip" : "", "twit" : { "name" : "", "user_id" : "", "img" : "" }, "insta" : { "name" : "", "place_id" : "", "user_id" : "" }, "fb" : { "url" : "", "page_id" : "", "place_id" : "" }, "url" : "", "chk" : { "growlers" : true, "fams" : true, "dogs" : true, "trucks" : true, "foods" : false }, "lat" : NaN, "lng" : NaN },{ "_id" : { "$oid" : "546da93fbd88977c821bc7f5" }, "addr" : "5674 El Camino Real", "city" : "Carlsbad", "name" : "On the Tracks ", "phone" : "(760) 550-9688", "slug" : "on-the-tracks", "state" : "CA", "sublocation" : "", "suffix" : "Brewery", "zip" : "92008", "twit" : { "name" : "OTTBrew", "user_id" : "", "img" : "" }, "insta" : { "name" : "n/a", "place_id" : "", "user_id" : "" }, "fb" : { "url" : "facebook.com/pages/On-The-Tracks-Brewery-LLC/194580547237056", "page_id" : "", "place_id" : "" }, "url" : "ottbrew.com", "chk" : { "growlers" : true, "fams" : true, "dogs" : true, "trucks" : true, "foods" : false }, "lat" : 33.13737982, "lng" : -117.2749695 },{ "_id" : { "$oid" : "546da93fbd88977c821bc7f6" }, "addr" : "8680 Miralani Dr", "city" : "San Diego", "name" : "Pacific ", "phone" : "(818) 434-6983", "slug" : "pacific", "state" : "CA", "sublocation" : "", "suffix" : "Brewing Co", "zip" : "92121", "twit" : { "name" : "n/a", "user_id" : "", "img" : "" }, "insta" : { "name" : "na", "place_id" : "", "user_id" : "" }, "fb" : { "url" : "facebook.com/PacificBrewingCompany", "page_id" : "", "place_id" : "" }, "url" : "pacificbrewingco.com", "chk" : { "growlers" : false, "fams" : false, "dogs" : false, "trucks" : false, "foods" : false }, "lat" : 32.89525872, "lng" : -117.1386769 },{ "_id" : { "$oid" : "546da93fbd88977c821bc7f7" }, "addr" : "721 Grand Ave", "city" : "San Diego", "name" : "Pacific Beach", "phone" : "(858) 581-2337", "slug" : "pacific-beach", "state" : "CA", "sublocation" : "", "suffix" : "Alehouse", "zip" : "92109", "twit" : { "name" : "pb_alehouse", "user_id" : "", "img" : "" }, "insta" : { "name" : "", "place_id" : "", "user_id" : "" }, "fb" : { "url" : "facebook.com/PacificBeachAleHouse", "page_id" : "", "place_id" : "" }, "url" : "pbalehouse.com", "chk" : { "growlers" : true, "fams" : true, "dogs" : false, "trucks" : false, "foods" : true }, "lat" : NaN, "lng" : NaN },{ "_id" : { "$oid" : "546da93fbd88977c821bc7f8" }, "addr" : "571 Carlsbad Village Dr", "city" : "Carlsbad", "name" : "Pizza Port", "phone" : "(760) 720-7007", "slug" : "pizza-port-carlsbad", "state" : "CA", "sublocation" : "Carlsbad", "suffix" : "", "zip" : "92008", "twit" : { "name" : "pizzaportCbad", "user_id" : "1372954034", "img" : "" }, "insta" : { "name" : "n/a", "place_id" : "", "user_id" : "" }, "fb" : { "url" : "facebook.com/pizzaportcarlsbad", "page_id" : "", "place_id" : "" }, "url" : "pizzaport.com", "chk" : { "growlers" : true, "fams" : true, "dogs" : false, "trucks" : false, "foods" : true }, "lat" : 33.15847672, "lng" : -117.3490028 },{ "_id" : { "$oid" : "546da93fbd88977c821bc7f9" }, "addr" : "2730 Gateway Road", "city" : "Carlsbad", "name" : "Pizza Port", "phone" : "760-707-1655", "slug" : "pizza-port-bressi-ranch", "state" : "CA", "sublocation" : "Bressi Ranch", "suffix" : "", "zip" : "92009", "twit" : { "name" : "pizzaportbressi", "user_id" : "", "img" : "" }, "insta" : { "name" : "n/a", "place_id" : "", "user_id" : "" }, "fb" : { "url" : "facebook.com/PizzaPortBressiRanch", "page_id" : "", "place_id" : "" }, "url" : "pizzaport.com", "chk" : { "growlers" : true, "fams" : true, "dogs" : false, "trucks" : false, "foods" : true }, "lat" : 33.12711872, "lng" : -117.2514825 },{ "_id" : { "$oid" : "546da93fbd88977c821bc7fa" }, "addr" : "1956 Bacon St", "city" : "Ocean Beach", "name" : "Pizza Port", "phone" : "619-224-4700", "slug" : "pizza-port-ocean-beach", "state" : "CA", "sublocation" : "Ocean Beach", "suffix" : "", "zip" : "92107", "twit" : { "name" : "pizzaportOB", "user_id" : "", "img" : "" }, "insta" : { "name" : "n/a", "place_id" : "", "user_id" : "" }, "fb" : { "url" : "facebook.com/PizzaPortOB", "page_id" : "", "place_id" : "" }, "url" : "pizzaport.com", "chk" : { "growlers" : true, "fams" : true, "dogs" : true, "trucks" : false, "foods" : true }, "lat" : 32.74661622, "lng" : -117.251651 },{ "_id" : { "$oid" : "546da93fbd88977c821bc7fb" }, "addr" : "135 N. Highway 101", "city" : "Solana Beach", "name" : "Pizza Port", "phone" : "(858)-481-7332", "slug" : "pizza-port-solana-beach", "state" : "CA", "sublocation" : "Solana Beach", "suffix" : "", "zip" : "92075", "twit" : { "name" : "pizzaportSB", "user_id" : "", "img" : "" }, "insta" : { "name" : "n/a", "place_id" : "", "user_id" : "" }, "fb" : { "url" : "facebook.com/pizzaportsolanabeach", "page_id" : "", "place_id" : "" }, "url" : "pizzaport.com", "chk" : { "growlers" : true, "fams" : true, "dogs" : false, "trucks" : false, "foods" : true }, "lat" : 32.99157402, "lng" : -117.273565 },{ "_id" : { "$oid" : "546da93fbd88977c821bc7fc" }, "addr" : "4494 30th Street", "city" : "San Diego", "name" : "Poor House", "phone" : "619.592.9555", "slug" : "poor-house", "state" : "CA", "sublocation" : "", "suffix" : "Brewing", "zip" : "92116", "twit" : { "name" : "Poorhousebrew", "user_id" : "", "img" : "" }, "insta" : { "name" : "poorhousebrew", "place_id" : "", "user_id" : "" }, "fb" : { "url" : "facebook.com/poorhousebrew", "page_id" : "", "place_id" : "" }, "url" : "poorhousebrew.com", "chk" : { "growlers" : false, "fams" : false, "dogs" : false, "trucks" : false, "foods" : false }, "lat" : 32.75762422, "lng" : -117.1317377 },{ "_id" : { "$oid" : "546da93fbd88977c821bc7fd" }, "addr" : "2004 E Vista Way", "city" : "Vista", "name" : "Prohibition ", "phone" : "(760) 295-3525", "slug" : "prohibition", "state" : "CA", "sublocation" : "", "suffix" : "Brewing Co", "zip" : "92084", "twit" : { "name" : "prohibitionbc", "user_id" : "387315958", "img" : "" }, "insta" : { "name" : "n/a", "place_id" : "", "user_id" : "" }, "fb" : { "url" : "facebook.com/ProhibitionBrewing", "page_id" : "", "place_id" : "" }, "url" : "prohibitionbrewingcompany.com", "chk" : { "growlers" : true, "fams" : true, "dogs" : false, "trucks" : false, "foods" : true }, "lat" : 33.22909462, "lng" : -117.228174 },{ "_id" : { "$oid" : "546da93fbd88977c821bc7fe" }, "addr" : "5375 Kearny Villa Rd #116", "city" : "San Diego", "name" : "Quantum", "phone" : "n/a", "slug" : "quantum", "state" : "CA", "sublocation" : "", "suffix" : "Brewing Co", "zip" : "92123", "twit" : { "name" : "QuantumBC", "user_id" : "", "img" : "" }, "insta" : { "name" : "n/a", "place_id" : "", "user_id" : "" }, "fb" : { "url" : "facebook.com/QuantumBrewing", "page_id" : "", "place_id" : "" }, "url" : "quantumbeer.com", "chk" : { "growlers" : false, "fams" : false, "dogs" : false, "trucks" : false, "foods" : false }, "lat" : 32.82923402, "lng" : -117.1400193 },{ "_id" : { "$oid" : "546da93fbd88977c821bc7ff" }, "addr" : "1325 Grand Ave #100", "city" : "San Marcos", "name" : "Rip Current ", "phone" : "(760) 481-3141", "slug" : "rip-current", "state" : "CA", "sublocation" : "", "suffix" : "Brewing", "zip" : "92078", "twit" : { "name" : "RipCurrentBeer", "user_id" : "506265103", "img" : "" }, "insta" : { "name" : "n/a", "place_id" : "", "user_id" : "" }, "fb" : { "url" : "facebook.com/RipCurrentBrewing", "page_id" : "", "place_id" : "" }, "url" : "ripcurrentbrewing.com", "chk" : { "growlers" : true, "fams" : true, "dogs" : true, "trucks" : false, "foods" : true }, "lat" : 33.14149092, "lng" : -117.1938623 },{ "_id" : { "$oid" : "546da93fbd88977c821bc800" }, "addr" : "8980 Villa La Jolla Dr", "city" : "La Jolla", "name" : "Rock Bottom", "phone" : "(858) 450-9277", "slug" : "rock-bottom-la-jolla", "state" : "CA", "sublocation" : "La Jolla", "suffix" : "", "zip" : "92037", "twit" : { "name" : "RBSanD", "user_id" : "", "img" : "" }, "insta" : { "name" : "rockbottombrewery", "place_id" : "", "user_id" : "" }, "fb" : { "url" : "facebook.com/RockBottomRestaurant", "page_id" : "", "place_id" : "" }, "url" : "rockbottom.com", "chk" : { "growlers" : true, "fams" : true, "dogs" : true, "trucks" : false, "foods" : true }, "lat" : NaN, "lng" : NaN },{ "_id" : { "$oid" : "546da93fbd88977c821bc801" }, "addr" : "8830 Rehco Rd", "city" : "San Diego", "name" : "Rough Draft", "phone" : "(858) 453-7238", "slug" : "rough-draft", "state" : "CA", "sublocation" : "", "suffix" : "Brewing Company", "zip" : "92121", "twit" : { "name" : "RoughDraftBrew", "user_id" : "329693688", "img" : "" }, "insta" : { "name" : "n/a", "place_id" : "", "user_id" : "" }, "fb" : { "url" : "facebook.com/RoughDraftBrew", "page_id" : "", "place_id" : "" }, "url" : "roughdraftbrew.com", "chk" : { "growlers" : true, "fams" : true, "dogs" : true, "trucks" : true, "foods" : false }, "lat" : 32.88227002, "lng" : -117.172974 },{ "_id" : { "$oid" : "546da93fbd88977c821bc802" }, "addr" : "9550 Distribution Ave", "city" : "San Diego", "name" : "Saint Archer", "phone" : "(858) 225-2337", "slug" : "saint-archer", "state" : "CA", "sublocation" : "", "suffix" : "Brewing Company", "zip" : "92121", "twit" : { "name" : "saintarcherbrew", "user_id" : "", "img" : "" }, "insta" : { "name" : "saintarcherbrew", "place_id" : "", "user_id" : "" }, "fb" : { "url" : "facebook.com/pages/Saint-Archer-Brewing-Company/456335307737826", "page_id" : "", "place_id" : "" }, "url" : "saintarcherbrewery.com", "chk" : { "growlers" : true, "fams" : true, "dogs" : true, "trucks" : true, "foods" : false }, "lat" : 32.87913322, "lng" : -117.1648149 },{ "_id" : { "$oid" : "546da93fbd88977c821bc803" }, "addr" : "10450 Friars Rd", "city" : "San Diego", "name" : "San Diego", "phone" : "(619) 284-2739", "slug" : "san-diego", "state" : "CA", "sublocation" : "", "suffix" : "Brewing Co", "zip" : "92120", "twit" : { "name" : "SanDiegoBrewing", "user_id" : "", "img" : "" }, "insta" : { "name" : "n/a", "place_id" : "", "user_id" : "" }, "fb" : { "url" : "facebook.com/SanDiegoBrewing", "page_id" : "", "place_id" : "" }, "url" : "sandiegobrewing.com", "chk" : { "growlers" : true, "fams" : true, "dogs" : false, "trucks" : false, "foods" : true }, "lat" : 32.79099322, "lng" : -117.1002542 },{ "_id" : { "$oid" : "546da93fbd88977c821bc804" }, "addr" : "1080 W. San Marcos Blvd. Suite #180", "city" : "San Marcos", "name" : "San Marcos", "phone" : "(760) 471-0050", "slug" : "san-marcos", "state" : "CA", "sublocation" : "", "suffix" : "Brewery &amp; Grill", "zip" : "92078", "twit" : { "name" : "n/a", "user_id" : "", "img" : "" }, "insta" : { "name" : "n/a", "place_id" : "", "user_id" : "" }, "fb" : { "url" : "facebook.com/SanMarcosBreweryGrill", "page_id" : "", "place_id" : "" }, "url" : "sanmarcosbrewery.com", "chk" : { "growlers" : true, "fams" : true, "dogs" : true, "trucks" : false, "foods" : true }, "lat" : NaN, "lng" : NaN },{ "_id" : { "$oid" : "546da93fbd88977c821bc805" }, "addr" : "8262 Clairemont Mesa Blvd", "city" : "San Dieog", "name" : "Societe", "phone" : "(858) 598-5409", "slug" : "societe", "state" : "CA", "sublocation" : "", "suffix" : "Brewing Company", "zip" : "92111", "twit" : { "name" : "societebrewing", "user_id" : "", "img" : "" }, "insta" : { "name" : "societebrewing", "place_id" : "", "user_id" : "" }, "fb" : { "url" : "facebook.com/societebrewing", "page_id" : "", "place_id" : "" }, "url" : "societebrewing.com", "chk" : { "growlers" : true, "fams" : true, "dogs" : true, "trucks" : true, "foods" : false }, "lat" : 32.83250892, "lng" : -117.1477222 },{ "_id" : { "$oid" : "546da93fbd88977c821bc806" }, "addr" : "1999 Citracado Pkwy", "city" : "Escondido", "name" : "Stone", "phone" : "(760) 294-7899", "slug" : "stone-escondido", "state" : "CA", "sublocation" : "Escondido", "suffix" : "Brewing Co.", "zip" : "92029", "twit" : { "name" : "StoneBrewingCo", "user_id" : "16331259", "img" : "" }, "insta" : { "name" : "StoneBrewingCo", "place_id" : "", "user_id" : "" }, "fb" : { "url" : "facebook.com/StoneBrewingCo", "page_id" : "", "place_id" : "" }, "url" : "stonebrewing.com", "chk" : { "growlers" : true, "fams" : true, "dogs" : false, "trucks" : false, "foods" : true }, "lat" : 33.11465162, "lng" : -117.12116 },{ "_id" : { "$oid" : "546da93fbd88977c821bc807" }, "addr" : "2816 Historic Decatur Rd #116", "city" : "San Diego", "name" : "Stone", "phone" : "(619) 269-2100", "slug" : "stone-liberty-station", "state" : "CA", "sublocation" : "Liberty Station", "suffix" : "Brewing Co.", "zip" : "92106", "twit" : { "name" : "StoneBrewingCo", "user_id" : "16331259", "img" : "" }, "insta" : { "name" : "StoneBrewingCo", "place_id" : "", "user_id" : "" }, "fb" : { "url" : "facebook.com/stonebrewinglibertystation", "page_id" : "", "place_id" : "" }, "url" : "stonelibertystation.com", "chk" : { "growlers" : true, "fams" : true, "dogs" : false, "trucks" : false, "foods" : true }, "lat" : 32.73915552, "lng" : -117.2130123 },{ "_id" : { "$oid" : "546da93fbd88977c821bc808" }, "addr" : "310 N. Tremont St.", "city" : "Oceanside", "name" : "Stone", "phone" : "(760) 529-0002", "slug" : "stone-oceanside", "state" : "CA", "sublocation" : "Oceanside", "suffix" : "Brewing Co.", "zip" : "92045", "twit" : { "name" : "StoneBrewingCo", "user_id" : "16331259", "img" : "" }, "insta" : { "name" : "StoneBrewingCo", "place_id" : "", "user_id" : "" }, "fb" : { "url" : "facebook.com/StoneStoreOside", "page_id" : "", "place_id" : "" }, "url" : "stonebrewing.com", "chk" : { "growlers" : true, "fams" : true, "dogs" : true, "trucks" : false, "foods" : false }, "lat" : 33.19544792, "lng" : -117.382469 },{ "_id" : { "$oid" : "546da93fbd88977c821bc809" }, "addr" : "2215 30th Street", "city" : "San Diego", "name" : "Stone", "phone" : "(619) 501-3342", "slug" : "stone-south-park", "state" : "CA", "sublocation" : "South Park", "suffix" : "Brewing Co.", "zip" : "92104", "twit" : { "name" : "StoneBrewingCo", "user_id" : "16331259", "img" : "" }, "insta" : { "name" : "StoneBrewingCo", "place_id" : "", "user_id" : "" }, "fb" : { "url" : "facebook.com/StoneStoreSP", "page_id" : "", "place_id" : "" }, "url" : "stonebrewing.com", "chk" : { "growlers" : true, "fams" : true, "dogs" : true, "trucks" : false, "foods" : false }, "lat" : 32.72768432, "lng" : -117.1313323 },{ "_id" : { "$oid" : "546da93fbd88977c821bc80a" }, "addr" : "1202 Kettner Blvd, Suite 101", "city" : "San Diego", "name" : "Stone", "phone" : "(619) 450-4518", "slug" : "stone-little-italy", "state" : "CA", "sublocation" : "Little Italy", "suffix" : "Brewing Co.", "zip" : "92101", "twit" : { "name" : "StoneBrewingCo", "user_id" : "16331259", "img" : "" }, "insta" : { "name" : "StoneBrewingCo", "place_id" : "", "user_id" : "" }, "fb" : { "url" : "facebook.com/StoneStoreOnKettner", "page_id" : "", "place_id" : "" }, "url" : "stonebrewing.com", "chk" : { "growlers" : true, "fams" : false, "dogs" : true, "trucks" : false, "foods" : false }, "lat" : 32.71668862, "lng" : -117.1708187 },{ "_id" : { "$oid" : "546da93fbd88977c821bc80b" }, "addr" : "3225 N Harbor Dr, Terminal 2", "city" : "San Diego", "name" : "Stone", "phone" : "", "slug" : "stone-sd-airport", "state" : "CA", "sublocation" : "SD Airport", "suffix" : "Brewing Co.", "zip" : "92101", "twit" : { "name" : "StoneBrewingCo", "user_id" : "16331259", "img" : "" }, "insta" : { "name" : "StoneBrewingCo", "place_id" : "", "user_id" : "" }, "fb" : { "url" : "", "page_id" : "", "place_id" : "" }, "url" : "stonebrewing.com", "chk" : { "growlers" : false, "fams" : true, "dogs" : false, "trucks" : false, "foods" : true }, "lat" : 32.7289736197085, "lng" : -117.192691180292 },{ "_id" : { "$oid" : "546da93fbd88977c821bc80c" }, "addr" : "795 J Street", "city" : "San Diego", "name" : "Stone", "phone" : "", "slug" : "stone-tap-room", "state" : "CA", "sublocation" : "Tap Room", "suffix" : "Brewing Co.", "zip" : "92101", "twit" : { "name" : "StoneBrewingCo", "user_id" : "16331259", "img" : "" }, "insta" : { "name" : "StoneBrewingCo", "place_id" : "", "user_id" : "" }, "fb" : { "url" : "", "page_id" : "", "place_id" : "" }, "url" : "stonebrewing.com", "chk" : { "growlers" : true, "fams" : true, "dogs" : false, "trucks" : false, "foods" : true }, "lat" : NaN, "lng" : NaN },{ "_id" : { "$oid" : "546da93fbd88977c821bc80d" }, "addr" : "9928 Protea Gardens Dr", "city" : "Escondido", "name" : "Stone", "phone" : "", "slug" : "stone-farms", "state" : "CA", "sublocation" : "Farms", "suffix" : "Brewing Co.", "zip" : "92026", "twit" : { "name" : "StoneBrewingCo", "user_id" : "16331259", "img" : "" }, "insta" : { "name" : "StoneBrewingCo", "place_id" : "", "user_id" : "" }, "fb" : { "url" : "", "page_id" : "", "place_id" : "" }, "url" : "stonebrewing.com", "chk" : { "growlers" : true, "fams" : true, "dogs" : true, "trucks" : false, "foods" : true }, "lat" : NaN, "lng" : NaN },{ "_id" : { "$oid" : "546da93fbd88977c821bc80e" }, "addr" : "1784 La Costa Meadows Dr #103", "city" : "San Marcos", "name" : "Stumblefoot ", "phone" : "(760) 208-1012", "slug" : "stumblefoot", "state" : "CA", "sublocation" : "", "suffix" : "Brewing Co.", "zip" : "92078", "twit" : { "name" : "StumblefootBrew", "user_id" : "1138467991", "img" : "" }, "insta" : { "name" : "stumblefootbrew", "place_id" : "", "user_id" : "" }, "fb" : { "url" : "facebook.com/StumblefootBrewingCo", "page_id" : "", "place_id" : "" }, "url" : "stumblefoot.com", "chk" : { "growlers" : true, "fams" : true, "dogs" : true, "trucks" : false, "foods" : false }, "lat" : 33.10359252, "lng" : -117.2206639 },{ "_id" : { "$oid" : "546da93fbd88977c821bc80f" }, "addr" : "3176 Thorn St", "city" : "San Diego", "name" : "Thorn Street", "phone" : "(619) 501-2739", "slug" : "thorn-street", "state" : "CA", "sublocation" : "", "suffix" : "Brewery", "zip" : "92104", "twit" : { "name" : "ThornStBrewery", "user_id" : "582018710", "img" : "" }, "insta" : { "name" : "thornstreetbrewery", "place_id" : "", "user_id" : "" }, "fb" : { "url" : "facebook.com/thornstreetbrew", "page_id" : "", "place_id" : "" }, "url" : "thornstreetbrew.com", "chk" : { "growlers" : true, "fams" : true, "dogs" : true, "trucks" : true, "foods" : false }, "lat" : 32.73812602, "lng" : -117.1268648 },{ "_id" : { "$oid" : "546da93fbd88977c821bc810" }, "addr" : "1495 Poinsettia Avenue, 148", "city" : "Vista", "name" : "Toolbox", "phone" : "(760) 598-1477", "slug" : "toolbox", "state" : "CA", "sublocation" : "", "suffix" : "Brewing Company", "zip" : "92081", "twit" : { "name" : "ToolboxBrewing", "user_id" : "1970215706", "img" : "" }, "insta" : { "name" : "toolboxbrewing", "place_id" : "", "user_id" : "" }, "fb" : { "url" : "facebook.com/ToolboxBrewing", "page_id" : "", "place_id" : "" }, "url" : "toolboxbrewing.com", "chk" : { "growlers" : true, "fams" : true, "dogs" : false, "trucks" : true, "foods" : false }, "lat" : 33.13460362, "lng" : -117.2252716 },{ "_id" : { "$oid" : "546da93fbd88977c821bc811" }, "addr" : "10151 Prospect Ave", "city" : "Santee", "name" : "Twisted Manzanita", "phone" : "(619) 334-1757", "slug" : "twisted-manzanita", "state" : "CA", "sublocation" : "", "suffix" : "Ales &amp; Spirits", "zip" : "92071", "twit" : { "name" : "manzanitabrew", "user_id" : "", "img" : "" }, "insta" : { "name" : "n/a", "place_id" : "", "user_id" : "" }, "fb" : { "url" : "facebook.com/twistedmanzanitaale", "page_id" : "", "place_id" : "" }, "url" : "twistedmanzanitaales.com", "chk" : { "growlers" : true, "fams" : true, "dogs" : true, "trucks" : true, "foods" : false }, "lat" : 32.82945802, "lng" : -116.9781622 },{ "_id" : { "$oid" : "546da93fbd88977c821bc812" }, "addr" : "110 S Magnolia Ave", "city" : "El Cajon", "name" : "Urbn St.", "phone" : "(619) 328-6922", "slug" : "urbn-st.", "state" : "CA", "sublocation" : "", "suffix" : "Brewing Company", "zip" : "92020", "twit" : { "name" : "urbnstbrewingco", "user_id" : "", "img" : "" }, "insta" : { "name" : "n/a", "place_id" : "", "user_id" : "" }, "fb" : { "url" : "facebook.com/urbnstbrewingco", "page_id" : "", "place_id" : "" }, "url" : "urbnstbrewing.com", "chk" : { "growlers" : true, "fams" : true, "dogs" : false, "trucks" : false, "foods" : true }, "lat" : 32.79358637, "lng" : -116.9636498 },{ "_id" : { "$oid" : "546da93fbd88977c821bc813" }, "addr" : "", "city" : "", "name" : "Valley Center", "phone" : "", "slug" : "valley-center", "state" : "", "sublocation" : "", "suffix" : "Brewery", "zip" : "", "twit" : { "name" : "", "user_id" : "", "img" : "" }, "insta" : { "name" : "", "place_id" : "", "user_id" : "" }, "fb" : { "url" : "", "page_id" : "", "place_id" : "" }, "url" : "", "chk" : { "growlers" : true, "fams" : true, "dogs" : true, "trucks" : true, "foods" : false }, "lat" : NaN, "lng" : NaN },{ "_id" : { "$oid" : "546da93fbd88977c821bc814" }, "addr" : "", "city" : "", "name" : "Wet n Reckless", "phone" : "", "slug" : "wet-n-reckless", "state" : "", "sublocation" : "", "suffix" : "Brewing", "zip" : "", "twit" : { "name" : "", "user_id" : "", "img" : "" }, "insta" : { "name" : "", "place_id" : "", "user_id" : "" }, "fb" : { "url" : "", "page_id" : "", "place_id" : "" }, "url" : "", "chk" : { "growlers" : true, "fams" : true, "dogs" : true, "trucks" : true, "foods" : true }, "lat" : NaN, "lng" : NaN },{ "_id" : { "$oid" : "546da93fbd88977c821bc815" }, "addr" : "9495 Candida St", "city" : "San Diego", "name" : "White Labs", "phone" : "(858) 693-3441", "slug" : "white-labs", "state" : "CA", "sublocation" : "", "suffix" : "", "zip" : "92126", "twit" : { "name" : "whitelabs", "user_id" : "", "img" : "" }, "insta" : { "name" : "n/a", "place_id" : "", "user_id" : "" }, "fb" : { "url" : "facebook.com/WhiteLabsTastingRoom", "page_id" : "", "place_id" : "" }, "url" : "whitelabs.com", "chk" : { "growlers" : true, "fams" : false, "dogs" : false, "trucks" : true, "foods" : false }, "lat" : 32.89446392, "lng" : -117.122774 }]
