[{"name":"2kids Brewing Company","loc":"","addr":"8680 Miralani Dr #123","city":"San Diego","state":"CA","zip":"92126","phone":"(858) 480-5437","www":"twokidsbrewing.com","latitude":32.89525872,"longitude":-117.1386769,"tw":"2KidsBrewing","ins":"","fb":"2kidsBrewing"},
{"name":"Acoustic Ales","loc":"","addr":"1795 Hancock St","city":"San Diego","state":"CA","zip":"92110","phone":"(619) 299-2537","www":"acousticales.com","latitude":32.74134027,"longitude":-117.1861584,"tw":"AcousticAles","ins":"acousticales","fb":"acoustic.ales.5"},
{"name":"AleSmith Brewing Company","loc":"","addr":"9368 Cabot Dr","city":"San Diego","state":"CA","zip":"92126","phone":"(858) 549-9888","www":"alesmith.com","latitude":32.89110422,"longitude":-117.1460647,"tw":"AleSmithBrewing","ins":"alesmithbrewing","fb":"AleSmithBrewingCo"},
{"name":"Alpine Beer Company","loc":"","addr":"2351 Alpine Blvd","city":"Alpine","state":"CA","zip":"91901","phone":"(619) 445-2337","www":"alpinebeerco.com","latitude":32.83387352,"longitude":-116.7642443,"tw":"alpineshawn","ins":"","fb":"alpinebeercompany"},
{"name":"Amplified Ale Works","loc":"","addr":"4150 Mission Blvd #208","city":"San Diego","state":"CA","zip":"92109","phone":"858.270.5222","www":"amplifiedales.com","latitude":32.78997072,"longitude":-117.2557908,"tw":"AmplifiedAles","ins":"amplifiedales","fb":"ckpacificbeach"},
{"name":"Arcana Brewing","loc":"","addr":"5621 Palmer Way","city":"Carlsbad","state":"CA","zip":"92010","phone":"(909) 529-2337","www":"arcanabrewing.com","latitude":33.13886142,"longitude":-117.2752734,"tw":"ArcanaBrewing","ins":"arcanabrewing","fb":"ArcanaBrewing"},
{"name":"Automatic Brewing Co","loc":"Blind Lady Ale House","addr":"3416 Adams Ave","city":"San Diego","state":"CA","zip":"92116","phone":"(619) 255-2491","www":"blindladyalehouse.com","latitude":32.76214902,"longitude":-117.1216497,"tw":"AutomaticBrewCo","ins":"","fb":"pages/AutomaticBrewingCo/114145628625452"},
{"name":"Aztec Brewery","loc":"","addr":"2330 La Mirada Dr #300","city":"Vista","state":"CA","zip":"92081","phone":"(760) 598-7720","www":"aztecbrewery.com","latitude":33.14841922,"longitude":-117.2312528,"tw":"AztecBrewery","ins":"aztecbrewery","fb":"AztecBrewery"},
{"name":"Back Street Brewery","loc":"","addr":"15 Main St #100","city":"Vista","state":"CA","zip":"92083","phone":"(760) 407-7600","www":"lamppost-backstreet.com","latitude":33.19868552,"longitude":-117.2460814,"tw":"BackStreetBrew","ins":"","fb":"BackstreetBreweryInc"},
{"name":"Ballast Point","loc":"Old Grove","addr":"10051 Old Grove Rd","city":"San Diego","state":"CA","zip":"92131","phone":"(858) 695-2739","www":"ballastpoint.com","latitude":32.89711702,"longitude":-117.112143,"tw":"BPbrewing","ins":"ballastpointbrewing","fb":"BallastPoint"},
{"name":"Ballast Point","loc":"Home Brew Mart","addr":"2215 India St","city":"San Diego","state":"CA","zip":"92110","phone":"(619) 255-7213","www":"","latitude":32.72636532,"longitude":-117.1710692,"tw":"","ins":"","fb":""},
{"name":"Ballast Point","loc":"Little Italy","addr":"5401 Linda Vista Rd, Suite 406","city":"San Diego","state":"CA","zip":"92110","phone":"(619) 295-2337","www":"","latitude":32.76540962,"longitude":-117.1965619,"tw":"","ins":"","fb":""},
{"name":"Ballast Point","loc":"Miramar","addr":"9045 Carroll Way","city":"San Diego","state":"CA","zip":"92121","phone":"(858) 790-6900","www":"","latitude":32.88672302,"longitude":-117.159462,"tw":"","ins":"","fb":""},
{"name":"Barrel Harbor Brewing","loc":"","addr":"2575 Pioneer Ave, Suite 104","city":"Vista","state":"CA","zip":"92081","phone":"(760) 734-3949","www":"barrelharborbrewing.com","latitude":33.14703302,"longitude":-117.22182,"tw":"BarrelHarbor","ins":"barrelharborbrewing","fb":"BarrelHarborBrewingCompany"},
{"name":"Belching Beaver","loc":"Production and Tasting Room","addr":"980 Park Center Dr","city":"Vista","state":"CA","zip":"92081","phone":"(760) 599-5832","www":"belchinbeaver.com","latitude":33.14368932,"longitude":-117.2298972,"tw":"belchingbeaver","ins":"belchingbeaver","fb":"pages/The-Belching-Beaver/157351577682127?fref=ts"},
{"name":"Belching Beaver","loc":"Tasting Room","addr":"4223 30th St","city":"San Diego","state":"CA","zip":"92104","phone":"(760) 282-1062","www":"","latitude":32.75340052,"longitude":-117.1314211,"tw":"","ins":"","fb":"pages/Belching-Beaver-North-Park/509559302434005?fref=ts"},
{"name":"Benchmark Brewing","loc":"","addr":"6190 Fairmount Ave","city":"San Diego","state":"CA","zip":"92120","phone":"(619) 795-2911","www":"benchmarkbrewing.com","latitude":32.78592342,"longitude":-117.1033711,"tw":"BenchmarkBrew","ins":"benchmarkbrewing","fb":"Benchmarkbrewing?fref=ts"},
{"name":"BNS Brewing and Distilling Co","loc":"","addr":"10960 Wheatlands Ave #101","city":"Santee","state":"CA","zip":"92071","phone":"(619) 956-0952","www":"bnsbrewinganddistilling.com","latitude":32.84530802,"longitude":-116.959694,"tw":"BNSCraftBrewing","ins":"bnsbrewinganddistilling","fb":"BNSBrewingDistillingCo"},
{"name":"Booze Brothers","loc":"","addr":"2545 Progress St","city":"Vista","state":"CA","zip":"92081","phone":"(760)295-0217","www":"boozebrothersbrewery.com","latitude":33.14682302,"longitude":-117.219396,"tw":"BoozeBrosBrew","ins":"boozebros","fb":"boozebrothersbrewery"},
{"name":"Border X Brewing","loc":"Otay Main Brewery","addr":"8684 Avenida de la Fuente Suite 8","city":"San Diego","state":"CA","zip":"92154","phone":"(619) 787-6176","www":"borderxbrewing.com","latitude":32.55529032,"longitude":-116.9581478,"tw":"BorderXBrewing","ins":"borderxbrewing","fb":"pages/Border-X-Brewing/153011721527877"},
{"name":"Breakwater Brewing Co","loc":"","addr":"101 N Coast Hwy","city":"Oceanside","state":"CA","zip":"92054","phone":"(760) 433-6064","www":"breakwaterbrewing.com","latitude":33.19368962,"longitude":-117.3807336,"tw":"Breakwaterbrew","ins":"","fb":"pages/Breakwater-Brewing-Company/92183371892"},
{"name":"Butcher's Brewing","loc":"","addr":"9962 Prospect Ave","city":"Santee","state":"CA","zip":"92071","phone":"(619) 334-2222","www":"butchersbrewing.com","latitude":32.83073462,"longitude":-116.9809785,"tw":"butchersbrewing","ins":"butchersbrewing","fb":"ButchersBrewing"},
{"name":"ChuckAlek Independent Brewers","loc":"","addr":"2330 Main St, Suite C","city":"Ramona","state":"CA","zip":"92065","phone":"(513) 465-9768","www":"chuckalek.com","latitude":33.02644702,"longitude":-116.8904995,"tw":"ChuckAlek","ins":"chuckalek","fb":"chuckalek"},
{"name":"Coronado Brewing Company","loc":"Brew Pub","addr":"170 Orange Ave","city":"Coronado","state":"CA","zip":"92118","phone":"(619) 437-4452","www":"coronadobrewingcompany.com","latitude":32.69642242,"longitude":-117.1745522,"tw":"CoronadoBrewing","ins":"coronadobrewing","fb":"coronadobrewingcompany"},
{"name":"Coronado Brewing Company","loc":"Tasting Room","addr":"1205 Knoxville St","city":"San Diego","state":"CA","zip":"92110","phone":"(619) 275-2215","www":"","latitude":32.77054162,"longitude":-117.2061368,"tw":"","ins":"","fb":""},
{"name":"Council Brewing","loc":"","addr":"7705 Convoy Ct","city":"San Diego","state":"CA","zip":"92111","phone":"(858) 256-0038","www":"councilbrew.com","latitude":32.83339977,"longitude":-117.1557141,"tw":"CouncilBrewing","ins":"councilbrewing","fb":"councilbrewing"},
{"name":"Culture Brewing","loc":"","addr":"111 S Cedros Ave Suite 200","city":"Solana Beach","state":"CA","zip":"92075","phone":"(858) 345-1154","www":"culturebrewingco.com","latitude":32.99019562,"longitude":-117.2720732,"tw":"culturebrewco","ins":"culturebrewingco","fb":"CultureBrewingCo"},
{"name":"Dos Desperados","loc":"","addr":"1241 Linda Vista Dr","city":"San Marcos","state":"CA","zip":"92078","phone":"(760) 566-6209","www":"dosdesperadosbrew.com","latitude":33.13597302,"longitude":-117.1948893,"tw":"dosdesperados","ins":"dosdesperados","fb":"pages/Dos-Desperados-Brewery/564232830293770"},
{"name":"Green Flash","loc":"","addr":"6550 Mira Mesa Blvd","city":"San Diego","state":"CA","zip":"92121","phone":"(858) 622-0085","www":"greenflashbrew.com","latitude":32.90577512,"longitude":-117.1791638,"tw":"Greenflashbeer","ins":"greenflashbeer","fb":"GreenFlashBrew"},
{"name":"Groundswell Brewing","loc":"","addr":"6304 Riverdale St","city":"San Diego","state":"CA","zip":"92120","phone":"(619) 795-2337","www":"groundswellbrew.com","latitude":32.78764622,"longitude":-117.1011362,"tw":"GroundswellBrew","ins":"groundswellbrew","fb":"GroundswellBrew"},
{"name":"Helms","loc":"","addr":"5640 Kearny Mesa Rd","city":"San Diego","state":"CA","zip":"92111","phone":"(858) 384-2772","www":"helmsbrewingco.com","latitude":32.83594032,"longitude":-117.1403661,"tw":"HelmsBrewingCo","ins":"helmsbrew","fb":"HelmsBrewingCo"},
{"name":"Hess","loc":"","addr":"3812 Grim Ave","city":"San Diego","state":"CA","zip":"92104","phone":"(619) 255-7136","www":"mikehessbrewing.com","latitude":32.74634532,"longitude":-117.1298062,"tw":"MHB","ins":"","fb":"MikeHessBrewingCoNorthPark"},
{"name":"Indian Joe","loc":"","addr":"2379 La Mirada Dr","city":"Vista","state":"CA","zip":"92081","phone":"(760) 295-3945","www":"indianjoebrewing.com","latitude":33.15087242,"longitude":-117.2294536,"tw":"IndianJoeBeer","ins":"indianjoebrewing","fb":"IndianJoeBrewingInc"},
{"name":"Intergalactic","loc":"","addr":"9835 Carroll Centre Rd","city":"San Diego","state":"CA","zip":"92126","phone":"(858) 750-0601","www":"intergalacticbrew.com","latitude":32.89742352,"longitude":-117.1219843,"tw":"GalacticBrew","ins":"","fb":"pages/Intergalactic-Brewing-Company/269611406418744"},
{"name":"Iron Fist","loc":"","addr":"1305 Hot Spring Way","city":"Vista","state":"CA","zip":"92081","phone":"(760) 216-6500","www":"ironfistbrewing.com","latitude":33.14411942,"longitude":-117.2400631,"tw":"IronFistBrewing","ins":"","fb":"IronFistBrewing"},
{"name":"Karl Strauss","loc":"","addr":"1157 Columbia St","city":"San Diego","state":"CA","zip":"92101","phone":"(619) 234-2739","www":"karlstrauss.com","latitude":32.71610102,"longitude":-117.168455,"tw":"Karl_Strauss","ins":"","fb":"KarlStraussBrewingCompany"},
{"name":"La Jolla Brewing Co.","loc":"","addr":"7536 Fay Ave","city":"La Jolla","state":"CA","zip":"92037","phone":"(858) 246-6759","www":"lajollabeer.com","latitude":32.83946582,"longitude":-117.2757105,"tw":"LaJollaBrewing","ins":"lajollabrewing","fb":"LaJollaBrewingCompany"},
{"name":"Latitude 33","loc":"","addr":"1430 Vantage Court, Suite 104","city":"Vista","state":"CA","zip":"92081","phone":", (760) 598-2337","www":"lat33brew.com","latitude":33.13493532,"longitude":-117.2258349,"tw":"lat33brew","ins":"","fb":"latitude33brewing"},
{"name":"Legacy","loc":"","addr":"363 Airport Rd","city":"Oceanside","state":"CA","zip":"92058","phone":"(760) 705-3221","www":"legacybrewingco.com","latitude":33.21404112,"longitude":-117.3521188,"tw":"LegacyBrewingCo","ins":"legacybrewing","fb":"LegacyBrewingCompany"},
{"name":"Lightning","loc":"","addr":"13200 Kirkham Way","city":"Poway","state":"CA","zip":"92064","phone":"(858) 513-8070","www":"lightningbrewery.com","latitude":32.93417072,"longitude":-117.0447903,"tw":"lightningbrew","ins":"","fb":"lightningbrewery"},
{"name":"Lost Abbey","loc":"","addr":"155 Mata Way #104","city":"San Marcos","state":"CA","zip":"92069","phone":"(800) 918-6816","www":"lostabbey.com","latitude":33.14027832,"longitude":-117.1506161,"tw":"lostabbey","ins":"lostabbey","fb":"port.lostabbey"},
{"name":"Mission","loc":"","addr":"1441 L St","city":"San Diego","state":"CA","zip":"92101","phone":"(619) 544-0555","www":"missionbrewery.com","latitude":32.70579872,"longitude":-117.1529406,"tw":"missionbrewery","ins":"missionbrewery","fb":"MissionBrewery"},
{"name":"Modern Times","loc":"LOMALAND FERMENTORIUM","addr":"3725 Greenwood St.","city":"San Dieog","state":"CA","zip":"92110","phone":"619-546-9694","www":"moderntimesbeer.com","latitude":32.75289812,"longitude":-117.2075676,"tw":"ModernTimesBeer","ins":"moderntimesbeer","fb":"ModernTimesIsYourFriend"},
{"name":"Modern Times","loc":"FLAVORDOME","addr":"300 Upas St","city":"San Diego","state":"CA","zip":"92104","phone":"619-269-5222","www":"","latitude":32.73945017,"longitude":-117.1635337,"tw":"","ins":"","fb":""},
{"name":"Monkey Paw","loc":"","addr":"805 16th St","city":"San Diego","state":"CA","zip":"92101","phone":"(619) 358-9901","www":"monkeypawbrewing.com","latitude":32.71251202,"longitude":-117.1505953,"tw":"MonkeyPawBrew","ins":"","fb":"monkeypawbrewing"},
{"name":"Mother Earth Brew Co","loc":"Tap House","addr":"206 Main Street","city":"Vista","state":"CA","zip":"92084","phone":"(760) 726-2273","www":"motherearthbrewco.com","latitude":33.20110612,"longitude":-117.2436859,"tw":"MotherEarthBrCo","ins":"","fb":"MotherEarthBrewCo"},
{"name":"Mother Earth Brew Co","loc":"Original Tasting Room","addr":"2055 Thibodo Road, Suite H","city":"Vista","state":"CA","zip":"92081","phone":"(760) 599-4225","www":"","latitude":33.16642162,"longitude":-117.2216806,"tw":"","ins":"","fb":""},
{"name":"New English Brewery","loc":"","addr":"11545 Sorrento Valley Rd","city":"San Diego","state":"CA","zip":"92121","phone":"(619) 857-8023","www":"newenglishbrewing.com","latitude":32.91125602,"longitude":-117.231835,"tw":"NewEnglishBrew","ins":"","fb":"pages/New-English-Brewing/175258044381"},
{"name":"Offbeat Brewing Co","loc":"","addr":"1223 Pacific Oaks Pl","city":"Escondido","state":"CA","zip":"92029","phone":"(760) 294-4045","www":"offbeatbrewing.com","latitude":33.10723142,"longitude":-117.1185287,"tw":"offbeatbrewing","ins":"","fb":"offbeatbrewing"},
{"name":"Pacific Brewing Co","loc":"","addr":"8680 Miralani Dr","city":"San Diego","state":"CA","zip":"92121","phone":"(818) 434-6983","www":"pacificbrewingco.com","latitude":32.89525872,"longitude":-117.1386769,"tw":"","ins":"","fb":"PacificBrewingCompany"},
{"name":"Pizza Port","loc":"Carlsbad","addr":"571 Carlsbad Village Dr","city":"Carlsbad","state":"CA","zip":"92008","phone":"(760) 720-7007","www":"pizzaport.com/locations/pizza-port-carlsbad/","latitude":33.15847672,"longitude":-117.3490028,"tw":"pizzaportCbad","ins":"","fb":"pizzaportcarlsbad"},
{"name":"Pizza Port","loc":"Bressi Ranch","addr":"2730 Gateway Road","city":"Carlsbad","state":"CA","zip":"92009","phone":"760-707-1655","www":"pizzaport.com/locations/pizza-port-bressi-ranch/","latitude":33.12711872,"longitude":-117.2514825,"tw":"pizzaportbressi","ins":"","fb":"PizzaPortBressiRanch"},
{"name":"Pizza Port","loc":"Ocean Beach","addr":"1956 Bacon St","city":"Ocean Beach","state":"CA","zip":"92107","phone":"619-224-4700","www":"pizzaport.com/locations/pizza-port-ocean-beach/","latitude":32.74661622,"longitude":-117.251651,"tw":"pizzaportOB","ins":"","fb":"PizzaPortOB"},
{"name":"Pizza Port","loc":"Solana Beach","addr":"135 N. Highway 101","city":"Solana Beach","state":"CA","zip":"92075","phone":"(858)-481-7332","www":"pizzaport.com/locations/pizza-port-solana-beach/","latitude":32.99157402,"longitude":-117.273565,"tw":"pizzaportSB","ins":"","fb":"pizzaportsolanabeach"},
{"name":"Prohibition Brewing Co","loc":"","addr":"2004 E Vista Way","city":"Vista","state":"CA","zip":"92084","phone":"(760) 295-3525","www":"prohibitionbrewingcompany.com","latitude":33.22909462,"longitude":-117.228174,"tw":"prohibitionbc","ins":"","fb":"ProhibitionBrewing"},
{"name":"Rip Current","loc":"","addr":"1325 Grand Ave #100","city":"San Marcos","state":"CA","zip":"92078","phone":"(760) 481-3141","www":"ripcurrentbrewing.com","latitude":33.14149092,"longitude":-117.1938623,"tw":"RipCurrentBeer","ins":"","fb":"RipCurrentBrewing"},
{"name":"Rough Draft","loc":"","addr":"8830 Rehco Rd","city":"San Diego","state":"CA","zip":"92121","phone":"(858) 453-7238","www":"roughdraftbrew.com","latitude":32.88227002,"longitude":-117.172974,"tw":"RoughDraftBrew","ins":"","fb":"RoughDraftBrew"},
{"name":"Saint Archer","loc":"","addr":"9550 Distribution Ave","city":"San Diego","state":"CA","zip":"92121","phone":"(858) 225-2337","www":"saintarcherbrewery.com","latitude":32.87913322,"longitude":-117.1648149,"tw":"saintarcherbrew","ins":"saintarcherbrew","fb":"pages/Saint-Archer-Brewing-Company/456335307737826"},
{"name":"Societe","loc":"","addr":"8262 Clairemont Mesa Blvd","city":"San Dieog","state":"CA","zip":"92111","phone":"(858) 598-5409","www":"societebrewing.com","latitude":32.83250892,"longitude":-117.1477222,"tw":"StoneBrewingCo","ins":"societebrewing","fb":"societebrewing"},
{"name":"Stone Brewing Co.","loc":"Escondido","addr":"1999 Citracado Pkwy","city":"Escondido","state":"CA","zip":"92029","phone":"(760) 294-7899","www":"stonebrewing.com","latitude":33.11465162,"longitude":-117.12116,"tw":"","ins":"StoneBrewingCo","fb":"StoneBrewingCo"},
{"name":"Stone Brewing Co.","loc":"Liberty Station","addr":"2816 Historic Decatur Rd #116","city":"San Diego","state":"CA","zip":"92106","phone":"(619) 269-2100","www":"stonelibertystation.com","latitude":32.73915552,"longitude":-117.2130123,"tw":"","ins":"","fb":"stonebrewinglibertystation"},
{"name":"Stone Brewing Co.","loc":"Oceanside","addr":"310 N. Tremont St.","city":"Oceanside","state":"CA","zip":"92045","phone":"(760) 529-0002","www":"stonebrewing.com","latitude":33.19544792,"longitude":-117.382469,"tw":"","ins":"","fb":"StoneStoreOside"},
{"name":"Stone Brewing Co.","loc":"South Park","addr":"2215 30th Street","city":"San Diego","state":"CA","zip":"92104","phone":"(619) 501-3342","www":"stonebrewing.com","latitude":32.72768432,"longitude":-117.1313323,"tw":"","ins":"","fb":"StoneStoreSP"},
{"name":"Stone Brewing Co.","loc":"Little Italy","addr":"1202 Kettner Blvd, Suite 101","city":"San Diego","state":"CA","zip":"92101","phone":"(619) 450-4518","www":"stonebrewing.com","latitude":32.71668862,"longitude":-117.1708187,"tw":"","ins":"","fb":"StoneStoreOnKettner"},
{"name":"Stumblefoot","loc":"","addr":"1784 La Costa Meadows Dr #103","city":"San Marcos","state":"CA","zip":"92078","phone":"(760) 208-1012","www":"stumblefoot.com","latitude":33.10359252,"longitude":-117.2206639,"tw":"StumblefootBrew","ins":"stumblefootbrew","fb":"StumblefootBrewingCo"},
{"name":"Thorn St Brewery","loc":"","addr":"3176 Thorn St","city":"San Diego","state":"CA","zip":"92104","phone":"(619) 501-2739","www":"thornstreetbrew.com","latitude":32.73812602,"longitude":-117.1268648,"tw":"ThornStBrewery","ins":"thornstreetbrewery","fb":"thornstreetbrew"},
{"name":"Toolbox Brewing","loc":"","addr":"1495 Poinsettia Avenue, 148","city":"Vista","state":"CA","zip":"92081","phone":"(760) 598-1477","www":"toolboxbrewing.com","latitude":33.13460362,"longitude":-117.2252716,"tw":"ToolboxBrewing","ins":"toolboxbrewing","fb":"ToolboxBrewing"},
{"name":"Twisted Manzanita","loc":"","addr":"10151 Prospect Ave","city":"Santee","state":"CA","zip":"92071","phone":"(619) 334-1757","www":"twistedmanzanitaales.com","latitude":32.82945802,"longitude":-116.9781622,"tw":"manzanitabrew","ins":"","fb":"twistedmanzanitaale"},
{"name":"White Labs","loc":"","addr":"9495 Candida St","city":"San Diego","state":"CA","zip":"92126","phone":"(858) 693-3441","www":"whitelabs.com","latitude":32.89446392,"longitude":-117.122774,"tw":"whitelabs","ins":"","fb":"WhiteLabsTastingRoom"},
{"name":"Beer Brewing Company ","loc":"","addr":"1815 S. Coast Hwy","city":"Oceanside","state":"CA","zip":"92054","phone":"(760) 505-0160","www":"beerbrewco.com","latitude":33.17318752,"longitude":-117.3632351,"tw":"beer_haven","ins":"","fb":"beerbrewingcompany"},
{"name":"Nickel Beer Company","loc":"","addr":"1485 Hollow Glen Rd","city":"Julian","state":"CA","zip":"92036","phone":"(760) 765-2337","www":"nickelbeerco.com","latitude":33.07512282,"longitude":-116.5919472,"tw":"NickelBeerCo","ins":"","fb":"NickelBeerCompany"},
{"name":"Bolt Brewery ","loc":"","addr":"8179 Center St","city":"La Mesa","state":"CA","zip":"91942","phone":"(619) 303-7837","www":"boltbrewery.com","latitude":32.77056002,"longitude":-117.021798,"tw":"BoltBrewery","ins":"","fb":"boltbrewery"},
{"name":"Oceanside Ale Works","loc":"","addr":"1800 Ord Way","city":"Oceanside","state":"CA","zip":"92056","phone":"(760) 721-4253","www":"oceansidealeworks.net/","latitude":33.20840042,"longitude":-117.2762484,"tw":"OAWBREW","ins":"","fb":"OAWBREW"},
{"name":"Poor House Brewing","loc":"","addr":"4494 30th Street","city":"San Diego","state":"CA","zip":"92116","phone":"619.592.9555","www":"poorhousebrew.com","latitude":32.75762422,"longitude":-117.1317377,"tw":"Poorhousebrew","ins":"poorhousebrew","fb":"poorhousebrew"},
{"name":"Bagby Beer Company","loc":"","addr":"601 S Coast Hwy","city":"Oceanside","state":"CA","zip":"92054","phone":"(760) 270-9075","www":"bagbybeer.com","latitude":33.18787602,"longitude":-117.375606,"tw":"bagbybeer","ins":"bagbybeer","fb":"bagbybeerco"},
{"name":"Hillcrest Brewing Co","loc":"","addr":"1458 University Ave","city":"San Diego","state":"CA","zip":"92103","phone":"(619) 269-4323","www":"hillcrestbrewingcompany.com","latitude":32.74775702,"longitude":-117.1512604,"tw":"QueensOfBeer","ins":"mosuniverse","fb":"HillcrestBrewingCompany"},
{"name":"On the Tracks Brew","loc":"","addr":"5674 El Camino Real","city":"Carlsbad","state":"CA","zip":"92008","phone":"(760) 550-9688","www":"ottbrew.com","latitude":33.13737982,"longitude":-117.2749695,"tw":"OTTBrew","ins":"","fb":"pages/On-The-Tracks-Brewery-LLC/194580547237056"},
{"name":"Quantum Brewing Co","loc":"","addr":"5375 Kearny Villa Rd #116","city":"San Diego","state":"CA","zip":"92123","phone":"","www":"quantumbeer.com","latitude":32.82923402,"longitude":-117.1400193,"tw":"QuantumBC","ins":"","fb":"QuantumBrewing"},
{"name":"Urban St. Brewing Co","loc":"","addr":"110 S Magnolia Ave","city":"El Cajon","state":"CA","zip":"92020","phone":"(619) 328-6922","www":"urbnstbrewing.com","latitude":32.79358637,"longitude":-116.9636498,"tw":"urbnstbrewingco","ins":"","fb":"urbnstbrewingco"},
{"name":"Rock Bottom Brewery SD","loc":"","addr":"8980 Villa La Jolla Dr","city":"La Jolla","state":"CA","zip":"92037","phone":"(858) 450-9277","www":"rockbottom.com","latitude":32.87001732,"longitude":-117.2355987,"tw":"RBSanD","ins":"rockbottombrewery","fb":"RockBottomRestaurant"},
{"name":"San Diego Brewing Co","loc":"","addr":"10450 Friars Rd","city":"San Diego","state":"CA","zip":"92120","phone":"(619) 284-2739","www":"sandiegobrewing.com","latitude":32.792396,"longitude":-117.098905,"tw":"SanDiegoBrewing","ins":"","fb":"SanDiegoBrewing"}]